id,name,country_name,latitude,longitude
3901,Badakhshan,Afghanistan,36.7347725,70.8119953
3871,Badghis,Afghanistan,35.1671339,63.7695384
3875,Baghlan,Afghanistan,36.1789026,68.7453064
3884,Balkh,Afghanistan,36.7550603,66.8975372
3872,Bamyan,Afghanistan,34.8100067,67.8212104
3892,Daykundi,Afghanistan,33.669495,66.0463534
3899,Farah,Afghanistan,32.495328,62.2626627
3889,Faryab,Afghanistan,36.0795613,64.905955
3870,Ghazni,Afghanistan,33.5450587,68.4173972
3888,Ghōr,Afghanistan,34.0995776,64.905955
3873,Helmand,Afghanistan,39.2989361,-76.6160472
3887,Herat,Afghanistan,34.352865,62.2040287
3886,Jowzjan,Afghanistan,36.8969692,65.6658568
3902,Kabul,Afghanistan,34.5553494,69.207486
3890,Kandahar,Afghanistan,31.628871,65.7371749
3879,Kapisa,Afghanistan,34.9810572,69.6214562
3878,Khost,Afghanistan,33.3338472,69.9371673
3876,Kunar,Afghanistan,34.8465893,71.097317
3900,Kunduz Province,Afghanistan,36.7285511,68.8678982
3891,Laghman,Afghanistan,34.6897687,70.1455805
3897,Logar,Afghanistan,34.0145518,69.1923916
3882,Nangarhar,Afghanistan,34.1718313,70.6216794
3896,Nimruz,Afghanistan,31.0261488,62.4504154
3880,Nuristan,Afghanistan,35.3250223,70.9071236
3894,Paktia,Afghanistan,33.706199,69.3831079
3877,Paktika,Afghanistan,32.2645386,68.5247149
3881,Panjshir,Afghanistan,38.8802391,-77.1717238
3895,Parwan,Afghanistan,34.9630977,68.8108849
3883,Samangan,Afghanistan,36.3155506,67.9642863
3885,Sar-e Pol,Afghanistan,36.216628,65.93336
3893,Takhar,Afghanistan,36.6698013,69.4784541
3898,Urozgan,Afghanistan,32.9271287,66.1415263
3874,Zabul,Afghanistan,32.1918782,67.1894488
603,Berat County,Albania,40.6953012,20.0449662
629,Berat District,Albania,40.7086377,19.9437314
607,Bulqizë District,Albania,41.4942587,20.2147157
618,Delvinë District,Albania,39.9481364,20.0955891
608,Devoll District,Albania,40.6447347,20.9506636
610,Dibër County,Albania,41.5888163,20.2355647
605,Dibër District,Albania,41.5888163,20.2355647
632,Durrës County,Albania,41.5080972,19.6163185
639,Durrës District,Albania,41.3706517,19.5211063
598,Elbasan County,Albania,41.1266672,20.2355647
631,Fier County,Albania,40.9191392,19.6639309
627,Fier District,Albania,40.727504,19.5627596
604,Gjirokastër County,Albania,40.0672874,20.1045229
621,Gjirokastër District,Albania,40.0672874,20.1045229
617,Gramsh District,Albania,40.8669873,20.1849323
600,Has District,Albania,42.7901336,-83.6122012
594,Kavajë District,Albania,41.1844529,19.5627596
628,Kolonjë District,Albania,40.3373262,20.6794676
630,Korçë County,Albania,40.590567,20.6168921
597,Korçë District,Albania,40.590567,20.6168921
614,Krujë District,Albania,41.5094765,19.7710732
612,Kuçovë District,Albania,40.7837063,19.8782348
601,Kukës County,Albania,42.0807464,20.4142923
623,Kukës District,Albania,42.0807464,20.4142923
622,Kurbin District,Albania,41.6412644,19.705595
609,Lezhë County,Albania,41.7813759,19.8067916
595,Lezhë District,Albania,41.786073,19.6460758
596,Librazhd District,Albania,41.1829232,20.3174769
599,Lushnjë District,Albania,40.941983,19.6996428
602,Malësi e Madhe District,Albania,42.4245173,19.6163185
637,Mallakastër District,Albania,40.5273376,19.7829791
635,Mat District,Albania,41.5937675,19.9973244
638,Mirditë District,Albania,41.764286,19.9020509
619,Peqin District,Albania,41.0470902,19.7502384
625,Përmet District,Albania,40.2361837,20.3517334
606,Pogradec District,Albania,40.9015314,20.6556289
620,Pukë District,Albania,42.0469772,19.8960968
624,Sarandë District,Albania,39.8592119,20.0271001
611,Shkodër County,Albania,42.150371,19.6639309
626,Shkodër District,Albania,42.0692985,19.5032559
593,Skrapar District,Albania,40.5349946,20.2832217
616,Tepelenë District,Albania,40.2966632,20.0181673
615,Tirana County,Albania,41.2427598,19.8067916
633,Tirana District,Albania,41.3275459,19.8186982
636,Tropojë District,Albania,42.3982151,20.1625955
634,Vlorë County,Albania,40.150096,19.8067916
613,Vlorë District,Albania,40.4660668,19.491356
1118,Adrar,Algeria,26.418131,-0.6014717
1119,Aïn Defla,Algeria,36.2509429,1.9393815
1122,Aïn Témouchent,Algeria,35.2992698,-1.1392792
1144,Algiers,Algeria,36.6997294,3.0576199
1103,Annaba,Algeria,36.8020508,7.5247243
1142,Batna,Algeria,35.5965954,5.8987139
1108,Béchar,Algeria,31.6238098,-2.2162443
1128,Béjaïa,Algeria,36.7515258,5.0556837
4909,Béni Abbès,Algeria,30.0831042,-2.8345052
1114,Biskra,Algeria,34.8449437,5.7248567
1111,Blida,Algeria,36.531123,2.8976254
4908,Bordj Baji Mokhtar,Algeria,22.966335,-3.9472732
1116,Bordj Bou Arréridj,Algeria,36.0739925,4.7630271
1104,Bouïra,Algeria,36.3691846,3.9006194
1125,Boumerdès,Algeria,36.6839559,3.6217802
1105,Chlef,Algeria,36.1693515,1.2891036
1121,Constantine,Algeria,36.3373911,6.663812
4912,Djanet,Algeria,23.8310872,8.7004672
1098,Djelfa,Algeria,34.6703956,3.2503761
1129,El Bayadh,Algeria,32.7148824,0.9056623
4905,El M'ghair,Algeria,33.9540561,5.1346418
4906,El Menia,Algeria,31.364225,2.5784495
1099,El Oued,Algeria,33.367811,6.8516511
1100,El Tarf,Algeria,36.7576678,8.3076343
1127,Ghardaïa,Algeria,32.4943741,3.64446
1137,Guelma,Algeria,36.4627444,7.4330833
1112,Illizi,Algeria,26.1690005,8.4842465
4914,In Guezzam,Algeria,20.3864323,4.7789394
4913,In Salah,Algeria,27.2149229,1.8484396
1113,Jijel,Algeria,36.7179681,5.9832577
1126,Khenchela,Algeria,35.4269404,7.1460155
1138,Laghouat,Algeria,33.8078341,2.8628294
1134,M'Sila,Algeria,35.7186646,4.5233423
1124,Mascara,Algeria,35.3904125,0.1494988
1109,Médéa,Algeria,36.2637078,2.7587857
1132,Mila,Algeria,36.3647957,6.1526985
1140,Mostaganem,Algeria,35.9583054,0.3371889
1102,Naama,Algeria,33.2667317,-0.3128659
1101,Oran,Algeria,35.6082351,-0.563609
1139,Ouargla,Algeria,32.2264863,5.7299821
4907,Ouled Djellal,Algeria,34.4178221,4.9685843
1136,Oum El Bouaghi,Algeria,35.8688789,7.1108266
1130,Relizane,Algeria,35.7383405,0.7532809
1123,Saïda,Algeria,34.8415207,0.1456055
1141,Sétif,Algeria,36.3073389,5.5617279
4902,Sidi Bel Abbès,Algeria,34.6806024,-1.0999495
1110,Skikda,Algeria,36.6721198,6.8350999
1143,Souk Ahras,Algeria,36.2801062,7.9384033
1135,Tamanghasset,Algeria,22.7902972,5.5193268
1117,Tébessa,Algeria,35.1290691,7.9592863
1106,Tiaret,Algeria,35.3708689,1.3217852
4910,Timimoun,Algeria,29.678906,0.5004608
1120,Tindouf,Algeria,27.8063119,-5.7299821
1115,Tipasa,Algeria,36.546265,2.1843285
1133,Tissemsilt,Algeria,35.6053781,1.813098
1131,Tizi Ouzou,Algeria,36.706911,4.2333355
1107,Tlemcen,Algeria,34.6780284,-1.366216
4911,Touggourt,Algeria,33.1248476,5.7832715
488,Andorra la Vella,Andorra,42.5063174,1.5218355
489,Canillo,Andorra,42.5978249,1.6566377
487,Encamp,Andorra,42.5359764,1.5836773
492,Escaldes-Engordany,Andorra,42.4909379,1.5886966
493,La Massana,Andorra,42.545625,1.5147392
491,Ordino,Andorra,42.5994433,1.5402327
490,Sant Julià de Lòria,Andorra,42.4529631,1.4918235
221,Bengo Province,Angola,-9.1042257,13.7289167
218,Benguela Province,Angola,-12.8003744,13.914399
212,Bié Province,Angola,-12.5727907,17.668887
228,Cabinda Province,Angola,-5.0248749,12.3463875
226,Cuando Cubango Province,Angola,-16.4180824,18.8076195
217,Cuanza Norte Province,Angola,-9.2398513,14.6587821
216,Cuanza Sul,Angola,-10.595191,15.4068079
215,Cunene Province,Angola,-16.2802221,16.1580937
213,Huambo Province,Angola,-12.5268221,15.5943388
225,Huíla Province,Angola,-14.9280553,14.6587821
222,Luanda Province,Angola,-9.035088,13.2663479
223,Lunda Norte Province,Angola,-8.3525022,19.1880047
220,Lunda Sul Province,Angola,-10.2866578,20.7122465
227,Malanje Province,Angola,-9.8251183,16.912251
219,Moxico Province,Angola,-13.4293579,20.3308814
224,Uíge Province,Angola,-7.1736732,15.4068079
214,Zaire Province,Angola,-6.5733458,13.1740348
3708,Barbuda,Antigua And Barbuda,17.6266242,-61.7713028
3703,Redonda,Antigua And Barbuda,16.938416,-62.3455148
3709,Saint George Parish,Antigua And Barbuda,,
3706,Saint John Parish,Antigua And Barbuda,,
3707,Saint Mary Parish,Antigua And Barbuda,,
3705,Saint Paul Parish,Antigua And Barbuda,,
3704,Saint Peter Parish,Antigua And Barbuda,,
3710,Saint Philip Parish,Antigua And Barbuda,40.4368258,-80.0685532
3656,Buenos Aires,Argentina,-37.2017285,-59.8410697
3647,Catamarca,Argentina,-28.4715877,-65.7877209
3640,Chaco,Argentina,-27.4257175,-59.0243784
3651,Chubut,Argentina,-43.2934246,-65.1114818
4880,Ciudad Autónoma de Buenos Aires,Argentina,-34.6036844,-58.3815591
3642,Córdoba,Argentina,-31.3992876,-64.2643842
3638,Corrientes,Argentina,-27.4692131,-58.8306349
3654,Entre Ríos,Argentina,-31.7746654,-60.4956461
3652,Formosa,Argentina,-26.1894804,-58.2242806
3645,Jujuy,Argentina,-24.1843397,-65.302177
3655,La Pampa,Argentina,-36.6147573,-64.2839209
3653,La Rioja,Argentina,-29.4193793,-66.8559932
3646,Mendoza,Argentina,-32.8894587,-68.8458386
3644,Misiones,Argentina,-27.4269255,-55.9467076
3648,Neuquén,Argentina,-38.94587,-68.0730925
3639,Río Negro,Argentina,-40.8261434,-63.0266339
3643,Salta,Argentina,-24.7997688,-65.4150367
3634,San Juan,Argentina,-31.5316976,-68.5676962
3636,San Luis,Argentina,-33.2962042,-66.3294948
3649,Santa Cruz,Argentina,-51.6352821,-69.2474353
3641,Santa Fe,Argentina,-31.5855109,-60.7238016
3635,Santiago del Estero,Argentina,-27.7833574,-64.264167
3650,Tierra del Fuego,Argentina,-54.8053998,-68.3242061
3637,Tucumán,Argentina,-26.8221127,-65.2192903
2023,Aragatsotn Region,Armenia,40.3347301,44.3748296
2024,Ararat Province,Armenia,39.9139415,44.7200004
2026,Armavir Region,Armenia,40.1554631,44.0372446
2028,Gegharkunik Province,Armenia,40.3526426,45.1260414
2033,Kotayk Region,Armenia,40.5410214,44.7690148
2029,Lori Region,Armenia,40.9698452,44.4900138
2031,Shirak Region,Armenia,40.9630814,43.8102461
2027,Syunik Province,Armenia,39.5133112,46.3393234
2032,Tavush Region,Armenia,40.8866296,45.339349
2025,Vayots Dzor Region,Armenia,39.7641996,45.3337528
2030,Yerevan,Armenia,40.1872023,44.515209
3907,Australian Capital Territory,Australia,-35.4734679,149.0123679
3909,New South Wales,Australia,-31.2532183,146.921099
3910,Northern Territory,Australia,-19.4914108,132.5509603
3905,Queensland,Australia,-20.9175738,142.7027956
3904,South Australia,Australia,-30.0002315,136.2091547
3908,Tasmania,Australia,-41.4545196,145.9706647
3903,Victoria,Australia,-36.4856423,140.9779425
3906,Western Australia,Australia,-27.6728168,121.6283098
2062,Burgenland,Austria,47.1537165,16.2688797
2057,Carinthia,Austria,46.722203,14.1805882
2065,Lower Austria,Austria,48.108077,15.8049558
2061,Salzburg,Austria,47.80949,13.05501
2059,Styria,Austria,47.3593442,14.4699827
2064,Tyrol,Austria,47.2537414,11.601487
2058,Upper Austria,Austria,48.025854,13.9723665
2060,Vienna,Austria,48.2081743,16.3738189
2063,Vorarlberg,Austria,47.2497427,9.9797373
540,Absheron District,Azerbaijan,40.3629693,49.2736815
559,Agdam District,Azerbaijan,39.9931853,46.9949562
553,Agdash District,Azerbaijan,40.6335427,47.467431
577,Aghjabadi District,Azerbaijan,28.7891841,77.5160788
543,Agstafa District,Azerbaijan,41.2655933,45.5134291
547,Agsu District,Azerbaijan,40.5283339,48.3650835
528,Astara District,Azerbaijan,38.4937845,48.6944365
575,Babek District,Azerbaijan,39.1507613,45.4485368
552,Baku,Azerbaijan,40.4092617,49.8670924
560,Balakan District,Azerbaijan,41.7037509,46.4044213
569,Barda District,Azerbaijan,40.3706555,47.1378909
554,Beylagan District,Azerbaijan,39.7723073,47.6154166
532,Bilasuvar District,Azerbaijan,39.4598833,48.5509813
561,Dashkasan District,Azerbaijan,40.5202257,46.0779304
527,Fizuli District,Azerbaijan,39.5378605,47.3033877
585,Ganja,Azerbaijan,36.3687338,-95.9985767
589,Gədəbəy,Azerbaijan,40.5699639,45.8106883
573,Gobustan District,Azerbaijan,40.5326104,48.927375
551,Goranboy District,Azerbaijan,40.5380506,46.5990891
531,Goychay,Azerbaijan,40.6236168,47.7403034
574,Goygol District,Azerbaijan,40.5595378,46.3314953
571,Hajigabul District,Azerbaijan,40.039377,48.9202533
544,Imishli District,Azerbaijan,39.8694686,48.0665218
564,Ismailli District,Azerbaijan,40.7429936,48.2125556
570,Jabrayil District,Azerbaijan,39.2645544,46.9621562
578,Jalilabad District,Azerbaijan,39.2051632,48.5100604
572,Julfa District,Azerbaijan,38.9604983,45.6292939
525,Kalbajar District,Azerbaijan,40.1024329,46.0364872
567,Kangarli District,Azerbaijan,39.387194,45.1639852
590,Khachmaz District,Azerbaijan,41.4591168,48.8020626
537,Khizi District,Azerbaijan,40.9109489,49.0729264
524,Khojali District,Azerbaijan,39.9132553,46.794305
549,Kurdamir District,Azerbaijan,40.3698651,48.1644626
541,Lachin District,Azerbaijan,39.6383414,46.5460853
587,Lankaran,Azerbaijan,38.7528669,48.8475015
558,Lankaran District,Azerbaijan,38.7528669,48.8475015
546,Lerik District,Azerbaijan,38.7736192,48.4151483
568,Martuni,Azerbaijan,39.7914693,47.1100814
555,Masally District,Azerbaijan,39.0340722,48.6589354
580,Mingachevir,Azerbaijan,40.7702563,47.0496015
562,Nakhchivan Autonomous Republic,Azerbaijan,39.3256814,45.4912648
530,Neftchala District,Azerbaijan,39.3881052,49.2413743
556,Oghuz District,Azerbaijan,41.0727924,47.4650672
534,Ordubad District,Azerbaijan,38.9021622,46.0237625
542,Qabala District,Azerbaijan,40.9253925,47.8016106
526,Qakh District,Azerbaijan,41.4206827,46.9320184
521,Qazakh District,Azerbaijan,41.0971074,45.3516331
563,Quba District,Azerbaijan,41.1564242,48.4135021
548,Qubadli District,Azerbaijan,39.2713996,46.6354312
588,Qusar District,Azerbaijan,41.4266886,48.4345577
557,Saatly District,Azerbaijan,39.9095503,48.3595122
565,Sabirabad District,Azerbaijan,39.9870663,48.4692545
522,Sadarak District,Azerbaijan,39.7105114,44.8864277
545,Salyan District,Azerbaijan,28.3524811,82.12784
536,Samukh District,Azerbaijan,40.7604631,46.4063181
591,Shabran District,Azerbaijan,41.2228376,48.8457304
579,Shahbuz District,Azerbaijan,39.4452103,45.6568009
518,Shaki,Azerbaijan,41.1974753,47.1571241
586,Shaki District,Azerbaijan,41.1134662,47.1316927
529,Shamakhi District,Azerbaijan,40.6318731,48.6363801
583,Shamkir District,Azerbaijan,40.8288144,46.0166879
535,Sharur District,Azerbaijan,39.5536332,44.984568
520,Shirvan,Azerbaijan,39.9469707,48.9223919
592,Shusha District,Azerbaijan,39.7537438,46.7464755
584,Siazan District,Azerbaijan,41.0783833,49.1118477
582,Sumqayit,Azerbaijan,40.5854765,49.6317411
519,Tartar District,Azerbaijan,40.3443875,46.9376519
533,Tovuz District,Azerbaijan,40.9954523,45.6165907
539,Ujar District,Azerbaijan,40.5067525,47.6489641
550,Yardymli District,Azerbaijan,38.9058917,48.2496127
538,Yevlakh,Azerbaijan,40.6196638,47.1500324
523,Yevlakh District,Azerbaijan,40.6196638,47.1500324
581,Zangilan District,Azerbaijan,39.0856899,46.6524728
566,Zaqatala District,Azerbaijan,41.5906889,46.7240373
576,Zardab District,Azerbaijan,40.2148114,47.714944
1992,Capital,Bahrain,,
1996,Central,Bahrain,26.1426093,50.5653294
1995,Muharraq,Bahrain,26.2685653,50.6482517
1994,Northern,Bahrain,26.1551914,50.4825173
1993,Southern,Bahrain,25.9381018,50.5756887
796,Bagerhat District,Bangladesh,22.6602436,89.7895478
802,Bahadia,Bangladesh,23.7898712,90.1671483
752,Bandarban District,Bangladesh,21.8311002,92.3686321
784,Barguna District,Bangladesh,22.0952915,90.1120696
818,Barisal District,Bangladesh,22.7022098,90.3696316
807,Barisal Division,Bangladesh,22.3811131,90.3371889
756,Bhola District,Bangladesh,22.1785315,90.7101023
797,Bogra District,Bangladesh,24.8510402,89.3697225
810,Brahmanbaria District,Bangladesh,23.9608181,91.1115014
768,Chandpur District,Bangladesh,23.2513148,90.8517846
761,Chapai Nawabganj District,Bangladesh,24.7413111,88.2912069
785,Chittagong District,Bangladesh,22.5150105,91.7538817
803,Chittagong Division,Bangladesh,23.1793157,91.9881527
788,Chuadanga District,Bangladesh,23.6160512,88.8263006
763,Comilla District,Bangladesh,23.4575667,91.1808996
751,Cox's Bazar District,Bangladesh,21.5640626,92.0282129
771,Dhaka District,Bangladesh,23.810514,90.3371889
760,Dhaka Division,Bangladesh,23.9535742,90.1494988
783,Dinajpur District,Bangladesh,25.6279123,88.6331758
762,Faridpur District,Bangladesh,23.5423919,89.6308921
816,Feni District,Bangladesh,22.9408784,91.4066646
795,Gaibandha District,Bangladesh,25.3296928,89.5429652
798,Gazipur District,Bangladesh,24.0958171,90.4125181
792,Gopalganj District,Bangladesh,26.4831584,84.43655
805,Habiganj District,Bangladesh,24.4771236,91.4506565
808,Jamalpur District,Bangladesh,25.0830926,89.7853218
757,Jessore District,Bangladesh,23.1634014,89.2181664
778,Jhalokati District,Bangladesh,22.57208,90.1869644
789,Jhenaidah District,Bangladesh,23.5449873,89.1726031
806,Joypurhat District,Bangladesh,25.0947349,89.0944937
786,Khagrachari District,Bangladesh,23.1321751,91.949021
811,Khulna District,Bangladesh,22.6737735,89.3966581
775,Khulna Division,Bangladesh,22.8087816,89.2467191
779,Kishoreganj District,Bangladesh,24.4260457,90.9820668
793,Kurigram District,Bangladesh,25.8072414,89.6294746
774,Kushtia District,Bangladesh,23.8906995,89.1099368
819,Lakshmipur District,Bangladesh,22.9446744,90.8281907
780,Lalmonirhat District,Bangladesh,25.9923398,89.2847251
817,Madaripur District,Bangladesh,23.2393346,90.1869644
776,Meherpur District,Bangladesh,23.8051991,88.6723578
794,Moulvibazar District,Bangladesh,24.3095344,91.7314903
790,Munshiganj District,Bangladesh,23.4980931,90.4126621
766,Mymensingh District,Bangladesh,24.7538575,90.4072919
758,Mymensingh Division,Bangladesh,24.71362,90.4502368
814,Naogaon District,Bangladesh,24.9131597,88.7530952
769,Narail District,Bangladesh,23.1162929,89.5840404
770,Narayanganj District,Bangladesh,23.7146601,90.563609
787,Natore District,Bangladesh,24.410243,89.0076177
764,Netrokona District,Bangladesh,24.8103284,90.8656415
772,Nilphamari District,Bangladesh,25.8482798,88.9414134
815,Noakhali District,Bangladesh,22.8723789,91.0973184
754,Pabna District,Bangladesh,24.158505,89.4480718
800,Panchagarh District,Bangladesh,26.2708705,88.5951751
777,Patuakhali District,Bangladesh,22.2248632,90.4547503
791,Pirojpur District,Bangladesh,22.5790744,89.9759264
773,Rajbari District,Bangladesh,23.715134,89.5874819
813,Rajshahi District,Bangladesh,24.3733087,88.6048716
753,Rajshahi Division,Bangladesh,24.7105776,88.9413865
809,Rangamati Hill District,Bangladesh,22.7324173,92.2985134
759,Rangpur District,Bangladesh,25.7467925,89.2508335
750,Rangpur Division,Bangladesh,25.8483388,88.9413865
799,Satkhira District,Bangladesh,22.3154812,89.1114525
801,Shariatpur District,Bangladesh,23.2423214,90.4347711
755,Sherpur District,Bangladesh,25.0746235,90.1494904
781,Sirajganj District,Bangladesh,24.3141115,89.5699615
812,Sunamganj District,Bangladesh,25.0714535,91.3991627
767,Sylhet District,Bangladesh,24.8993357,91.8700473
765,Sylhet Division,Bangladesh,24.7049811,91.6760691
782,Tangail District,Bangladesh,24.3917427,89.9948257
804,Thakurgaon District,Bangladesh,26.0418392,88.4282616
1228,Christ Church,Barbados,36.0060407,-95.921121
1229,Saint Andrew,Barbados,,
1226,Saint George,Barbados,37.0965278,-113.5684164
1224,Saint James,Barbados,48.523566,-1.3237885
1227,Saint John,Barbados,45.2733153,-66.063308
1223,Saint Joseph,Barbados,39.7674578,-94.846681
1221,Saint Lucy,Barbados,38.7614625,-77.4491439
1230,Saint Michael,Barbados,36.035977,-95.849052
1222,Saint Peter,Barbados,37.0827119,-94.517125
1220,Saint Philip,Barbados,35.233114,-89.4364042
1225,Saint Thomas,Barbados,18.3380965,-64.8940946
2959,Brest Region,Belarus,52.5296641,25.460648
2955,Gomel Region,Belarus,52.1648754,29.1333251
2956,Grodno Region,Belarus,53.6599945,25.3448571
2958,Minsk,Belarus,53.9006011,27.558972
2957,Minsk Region,Belarus,54.1067889,27.4129245
2954,Mogilev Region,Belarus,53.5101791,30.4006444
2960,Vitebsk Region,Belarus,55.2959833,28.7583627
1381,Antwerp,Belgium,51.2194475,4.4024643
1376,Brussels-Capital Region,Belgium,50.8503463,4.3517211
1377,East Flanders,Belgium,51.0362101,3.7373124
1373,Flanders,Belgium,51.0108706,3.7264613
1374,Flemish Brabant,Belgium,50.8815434,4.564597
1375,Hainaut,Belgium,50.5257076,4.0621017
1384,Liège,Belgium,50.6325574,5.5796662
1372,Limburg,Belgium,,
1379,Luxembourg,Belgium,49.815273,6.129583
1378,Namur,Belgium,50.4673883,4.8719854
1380,Wallonia,Belgium,50.4175637,4.4510066
1382,Walloon Brabant,Belgium,50.633241,4.524315
1383,West Flanders,Belgium,40.0179334,-105.2806733
264,Belize District,Belize,17.5677679,-88.4016041
269,Cayo District,Belize,17.0984445,-88.9413865
266,Corozal District,Belize,18.1349238,-88.2461183
268,Orange Walk District,Belize,17.760353,-88.864698
265,Stann Creek District,Belize,16.8116631,-88.4016041
267,Toledo District,Belize,16.2491923,-88.864698
3077,Alibori Department,Benin,10.9681093,2.7779813
3076,Atakora Department,Benin,10.7954931,1.6760691
3079,Atlantique Department,Benin,6.6588391,2.2236667
3078,Borgou Department,Benin,9.5340864,2.7779813
3070,Collines Department,Benin,8.3022297,2.302446
3072,Donga Department,Benin,9.7191867,1.6760691
3071,Kouffo Department,Benin,7.0035894,1.7538817
3081,Littoral Department,Benin,6.3806973,2.4406387
3075,Mono Department,Benin,37.9218608,-118.9528645
3080,Ouémé Department,Benin,6.6148152,2.4999918
3074,Plateau Department,Benin,7.3445141,2.539603
3073,Zou Department,Benin,7.3469268,2.0665197
4860,Devonshire Parish,Bermuda,32.3038062,-64.7606954
4861,Hamilton Parish,Bermuda,32.3449432,-64.72365
4863,Paget Parish,Bermuda,32.281074,-64.7784787
4864,Pembroke Parish,Bermuda,32.3007672,-64.796263
4866,Saint George's Parish,Bermuda,17.1257759,-62.5619811
4867,Sandys Parish,Bermuda,32.2999528,-64.8674103
4868,"Smith's Parish,",Bermuda,32.3133966,-64.7310588
4869,Southampton Parish,Bermuda,32.2540095,-64.8259058
4870,Warwick Parish,Bermuda,32.2661534,-64.8081198
240,Bumthang District,Bhutan,27.641839,90.6773046
239,Chukha District,Bhutan,27.0784304,89.4742177
238,Dagana District,Bhutan,27.0322861,89.8879304
229,Gasa District,Bhutan,28.0185886,89.9253233
232,Haa District,Bhutan,27.2651669,89.1705998
234,Lhuntse District,Bhutan,27.8264989,91.135302
242,Mongar District,Bhutan,27.2617059,91.2891036
237,Paro District,Bhutan,27.4285949,89.4166516
244,Pemagatshel District,Bhutan,27.002382,91.3469247
235,Punakha District,Bhutan,27.6903716,89.8879304
243,Samdrup Jongkhar District,Bhutan,26.8035682,91.5039207
246,Samtse District,Bhutan,27.0291832,89.0561532
247,Sarpang District,Bhutan,26.9373041,90.4879916
241,Thimphu District,Bhutan,27.4712216,89.6339041
236,Trashigang District,Bhutan,27.2566795,91.7538817
245,Trongsa District,Bhutan,27.5002269,90.5080634
230,Tsirang District,Bhutan,27.032207,90.1869644
231,Wangdue Phodrang District,Bhutan,27.4526046,90.0674928
233,Zhemgang District,Bhutan,27.076975,90.8294002
3375,Beni Department,Bolivia,-14.3782747,-65.0957792
3382,Chuquisaca Department,Bolivia,-20.0249144,-64.1478236
3381,Cochabamba Department,Bolivia,-17.5681675,-65.475736
3380,La Paz Department,Bolivia,,
3376,Oruro Department,Bolivia,-18.5711579,-67.7615983
3379,Pando Department,Bolivia,-10.7988901,-66.9988011
3383,Potosí Department,Bolivia,-20.624713,-66.9988011
3377,Santa Cruz Department,Bolivia,-16.7476037,-62.0750998
3378,Tarija Department,Bolivia,-21.5831595,-63.9586111
5086,Bonaire,"Bonaire, Sint Eustatius and Saba",12.2018902,-68.2623822
5087,Saba,"Bonaire, Sint Eustatius and Saba",17.6354642,-63.2326763
5088,Sint Eustatius,"Bonaire, Sint Eustatius and Saba",17.4890306,-62.973555
472,Bosnian Podrinje Canton,Bosnia and Herzegovina,43.68749,18.8244394
460,Brčko District,Bosnia and Herzegovina,44.8405944,18.742153
471,Canton 10,Bosnia and Herzegovina,43.9534155,16.9425187
462,Central Bosnia Canton,Bosnia and Herzegovina,44.1381856,17.6866714
467,Federation of Bosnia and Herzegovina,Bosnia and Herzegovina,43.8874897,17.842793
463,Herzegovina-Neretva Canton,Bosnia and Herzegovina,43.5265159,17.763621
464,Posavina Canton,Bosnia and Herzegovina,45.0752094,18.3776304
470,Republika Srpska,Bosnia and Herzegovina,44.7280186,17.3148136
466,Sarajevo Canton,Bosnia and Herzegovina,43.8512564,18.2953442
461,Tuzla Canton,Bosnia and Herzegovina,44.5343463,18.6972797
465,Una-Sana Canton,Bosnia and Herzegovina,44.6503116,16.3171629
469,West Herzegovina Canton,Bosnia and Herzegovina,43.4369244,17.3848831
468,Zenica-Doboj Canton,Bosnia and Herzegovina,44.2127109,18.1604625
3067,Central District,Botswana,,
3061,Ghanzi District,Botswana,-21.8652314,21.8568586
3066,Kgalagadi District,Botswana,-24.7550285,21.8568586
3062,Kgatleng District,Botswana,-24.1970445,26.2304616
3069,Kweneng District,Botswana,-23.8367249,25.2837585
3060,Ngamiland,Botswana,-19.1905321,23.0011989
3068,North-East District,Botswana,37.5884461,-94.6863782
3065,North-West District,Botswana,39.3446307,-76.6854283
3064,South-East District,Botswana,31.2163798,-82.3527044
3063,Southern District,Botswana,,
2012,Acre,Brazil,-9.023796,-70.811995
2007,Alagoas,Brazil,-9.5713058,-36.7819505
1999,Amapá,Brazil,0.9019925,-52.0029565
2004,Amazonas,Brazil,-3.07,-61.66
2002,Bahia,Brazil,-11.409874,-41.280857
2016,Ceará,Brazil,-5.4983977,-39.3206241
2017,Distrito Federal,Brazil,-15.7997654,-47.8644715
2018,Espírito Santo,Brazil,-19.1834229,-40.3088626
2000,Goiás,Brazil,-15.8270369,-49.8362237
2015,Maranhão,Brazil,-4.9609498,-45.2744159
2011,Mato Grosso,Brazil,-12.6818712,-56.921099
2010,Mato Grosso do Sul,Brazil,-20.7722295,-54.7851531
1998,Minas Gerais,Brazil,-18.512178,-44.5550308
2009,Pará,Brazil,-1.9981271,-54.9306152
2005,Paraíba,Brazil,-7.2399609,-36.7819505
2022,Paraná,Brazil,-25.2520888,-52.0215415
2006,Pernambuco,Brazil,-8.8137173,-36.954107
2008,Piauí,Brazil,-7.7183401,-42.7289236
1997,Rio de Janeiro,Brazil,-22.9068467,-43.1728965
2019,Rio Grande do Norte,Brazil,-5.4025803,-36.954107
2001,Rio Grande do Sul,Brazil,-30.0346316,-51.2176986
2013,Rondônia,Brazil,-11.5057341,-63.580611
4858,Roraima,Brazil,2.7375971,-62.0750998
2014,Santa Catarina,Brazil,-27.33,-49.44
2021,São Paulo,Brazil,-23.5505199,-46.6333094
2003,Sergipe,Brazil,-10.5740934,-37.3856581
2020,Tocantins,Brazil,-10.17528,-48.2982474
1217,Belait District,Brunei,4.3750749,114.6192899
1216,Brunei-Muara District,Brunei,4.9311206,114.9516869
1218,Temburong District,Brunei,4.6204128,115.141484
1219,Tutong District,Brunei,4.7140373,114.6667939
4699,Blagoevgrad Province,Bulgaria,42.0208614,23.0943356
4715,Burgas Province,Bulgaria,42.5048,27.4626079
4718,Dobrich Province,Bulgaria,43.572786,27.8272802
4693,Gabrovo Province,Bulgaria,42.86847,25.316889
4704,Haskovo Province,Bulgaria,41.9344178,25.5554672
4702,Kardzhali Province,Bulgaria,41.6338416,25.3776687
4703,Kyustendil Province,Bulgaria,42.2868799,22.6939635
4710,Lovech Province,Bulgaria,43.1367798,24.7139335
4696,Montana Province,Bulgaria,43.4085148,23.2257589
4712,Pazardzhik Province,Bulgaria,42.1927567,24.3336226
4695,Pernik Province,Bulgaria,42.605199,23.0377916
4706,Pleven Province,Bulgaria,43.4170169,24.6066708
4701,Plovdiv Province,Bulgaria,42.1354079,24.7452904
4698,Razgrad Province,Bulgaria,43.5271705,26.5241228
4713,Ruse Province,Bulgaria,43.8355964,25.9656144
4882,Shumen,Bulgaria,43.2712398,26.9361286
4708,Silistra Province,Bulgaria,44.1147101,27.2671454
4700,Sliven Province,Bulgaria,42.6816702,26.3228569
4694,Smolyan Province,Bulgaria,41.5774148,24.7010871
4705,Sofia City Province,Bulgaria,42.7570109,23.4504683
4719,Sofia Province,Bulgaria,42.67344,23.8334937
4707,Stara Zagora Province,Bulgaria,42.4257709,25.6344855
4714,Targovishte Province,Bulgaria,43.2462349,26.5691251
4717,Varna Province,Bulgaria,43.2046477,27.9105488
4709,Veliko Tarnovo Province,Bulgaria,43.0756539,25.61715
4697,Vidin Province,Bulgaria,43.9961739,22.8679515
4711,Vratsa Province,Bulgaria,43.2101806,23.552921
4716,Yambol Province,Bulgaria,42.4841494,26.5035296
3160,Balé Province,Burkina Faso,11.7820602,-3.0175712
3155,Bam Province,Burkina Faso,13.446133,-1.5983959
3120,Banwa Province,Burkina Faso,12.1323053,-4.1513764
3152,Bazèga Province,Burkina Faso,11.9767692,-1.443469
3138,Boucle du Mouhoun Region,Burkina Faso,12.4166,-3.4195527
3121,Bougouriba Province,Burkina Faso,10.8722646,-3.3388917
3131,Boulgou,Burkina Faso,11.4336766,-0.3748354
3153,Cascades Region,Burkina Faso,10.4072992,-4.5624426
3136,Centre,Burkina Faso,,
3162,Centre-Est Region,Burkina Faso,11.5247674,-0.1494988
3127,Centre-Nord Region,Burkina Faso,13.1724464,-0.9056623
3115,Centre-Ouest Region,Burkina Faso,11.8798466,-2.302446
3149,Centre-Sud Region,Burkina Faso,11.5228911,-1.0586135
3167,Comoé Province,Burkina Faso,10.4072992,-4.5624426
3158,Est Region,Burkina Faso,12.4365526,0.9056623
3148,Ganzourgou Province,Burkina Faso,12.2537648,-0.7532809
3122,Gnagna Province,Burkina Faso,12.8974992,0.0746767
3143,Gourma Province,Burkina Faso,12.1624473,0.6773046
3165,Hauts-Bassins Region,Burkina Faso,11.4942003,-4.2333355
3129,Houet Province,Burkina Faso,11.1320447,-4.2333355
3135,Ioba Province,Burkina Faso,11.0562034,-3.0175712
3168,Kadiogo Province,Burkina Faso,12.3425897,-1.443469
3112,Kénédougou Province,Burkina Faso,11.3919395,-4.976654
3132,Komondjari Province,Burkina Faso,12.7126527,0.6773046
3157,Kompienga Province,Burkina Faso,11.5238362,0.7532809
3146,Kossi Province,Burkina Faso,12.960458,-3.9062688
3133,Koulpélogo Province,Burkina Faso,11.5247674,0.1494988
3161,Kouritenga Province,Burkina Faso,12.1631813,-0.2244662
3147,Kourwéogo Province,Burkina Faso,12.7077495,-1.7538817
3159,Léraba Province,Burkina Faso,10.6648785,-5.3102505
3151,Loroum Province,Burkina Faso,13.8129814,-2.0665197
3123,Mouhoun,Burkina Faso,12.1432381,-3.3388917
3116,Nahouri Province,Burkina Faso,11.2502267,-1.135302
3113,Namentenga Province,Burkina Faso,13.0812584,-0.5257823
3142,Nayala Province,Burkina Faso,12.6964558,-3.0175712
3164,"Nord Region, Burkina Faso",Burkina Faso,13.718252,-2.302446
3156,Noumbiel Province,Burkina Faso,9.8440946,-2.9775558
3141,Oubritenga Province,Burkina Faso,12.7096087,-1.443469
3144,Oudalan Province,Burkina Faso,14.471902,-0.4502368
3117,Passoré Province,Burkina Faso,12.8881221,-2.2236667
3125,Plateau-Central Region,Burkina Faso,12.2537648,-0.7532809
3163,Poni Province,Burkina Faso,10.3325996,-3.3388917
3114,Sahel Region,Burkina Faso,14.1000865,-0.1494988
3154,Sanguié Province,Burkina Faso,12.1501861,-2.6983868
3126,Sanmatenga Province,Burkina Faso,13.3565304,-1.0586135
3139,Séno Province,Burkina Faso,14.0072234,-0.0746767
3119,Sissili Province,Burkina Faso,11.2441219,-2.2236667
3166,Soum Province,Burkina Faso,14.0962841,-1.366216
3137,Sourou Province,Burkina Faso,13.341803,-2.9375739
3140,Sud-Ouest Region,Burkina Faso,10.4231493,-3.2583626
3128,Tapoa Province,Burkina Faso,12.2497072,1.6760691
3134,Tuy Province,Burkina Faso,38.888684,-77.004719
3124,Yagha Province,Burkina Faso,13.3576157,0.7532809
3150,Yatenga Province,Burkina Faso,13.6249344,-2.3813621
3145,Ziro Province,Burkina Faso,11.6094995,-1.9099238
3130,Zondoma Province,Burkina Faso,13.1165926,-2.4208713
3118,Zoundwéogo Province,Burkina Faso,11.6141174,-0.9820668
3196,Bubanza Province,Burundi,-3.1572403,29.3714909
3198,Bujumbura Mairie Province,Burundi,-3.3884141,29.3482646
3200,Bujumbura Rural Province,Burundi,-3.5090144,29.464359
3202,Bururi Province,Burundi,-3.9006851,29.5107708
3201,Cankuzo Province,Burundi,-3.1527788,30.6199895
3190,Cibitoke Province,Burundi,-2.8102897,29.1855785
3197,Gitega Province,Burundi,-3.4929051,29.9277947
3194,Karuzi Province,Burundi,-3.1340347,30.112735
3192,Kayanza Province,Burundi,-3.0077981,29.6499162
3195,Kirundo Province,Burundi,-2.5762882,30.112735
3188,Makamba Province,Burundi,-4.3257062,29.6962677
3193,Muramvya Province,Burundi,-3.2898398,29.6499162
3186,Muyinga Province,Burundi,-2.7793511,30.2974199
3187,Mwaro Province,Burundi,-3.5025918,29.6499162
3199,Ngozi Province,Burundi,-2.8958243,29.8815203
3185,Rumonge Province,Burundi,-3.9754049,29.4388014
3189,Rutana Province,Burundi,-3.8791523,30.0665236
3191,Ruyigi Province,Burundi,-3.446207,30.2512728
3984,Banteay Meanchey,Cambodia,13.7531914,102.989615
3976,Battambang,Cambodia,13.0286971,102.989615
3991,Kampong Cham,Cambodia,12.0982918,105.3131185
3979,Kampong Chhnang,Cambodia,12.1392352,104.5655273
3988,Kampong Speu,Cambodia,11.6155109,104.3791912
5070,Kampong Thom,Cambodia,12.8167485,103.8413104
3981,Kampot,Cambodia,10.7325351,104.3791912
3983,Kandal,Cambodia,11.2237383,105.1258955
3978,Kep,Cambodia,10.536089,104.3559158
3982,Koh Kong,Cambodia,11.5762804,103.3587288
3986,Kratie,Cambodia,12.5043608,105.9699878
3985,Mondulkiri,Cambodia,12.7879427,107.1011931
3987,Oddar Meanchey,Cambodia,14.1609738,103.8216261
3980,Pailin,Cambodia,12.9092962,102.6675575
3994,Phnom Penh,Cambodia,11.5563738,104.9282099
3973,Preah Vihear,Cambodia,14.0085797,104.8454619
3974,Prey Veng,Cambodia,11.3802442,105.5005483
3977,Pursat,Cambodia,12.2720956,103.7289167
3990,Ratanakiri,Cambodia,13.8576607,107.1011931
3992,Siem Reap,Cambodia,13.330266,104.1001326
3989,Sihanoukville,Cambodia,10.7581899,103.8216261
3993,Stung Treng,Cambodia,13.576473,105.9699878
3972,Svay Rieng,Cambodia,11.142722,105.8290298
3975,Takeo,Cambodia,10.9321519,104.798771
2663,Adamawa,Cameroon,9.3264751,12.3983853
2660,Centre,Cameroon,,
2661,East,Cameroon,39.0185336,-94.2792411
2656,Far North,Cameroon,66.7613451,124.123753
2662,Littoral,Cameroon,48.4622757,-68.5178071
2665,North,Cameroon,37.09024,-95.712891
2657,Northwest,Cameroon,36.3711857,-94.1934606
2659,South,Cameroon,37.631595,-97.3458409
2658,Southwest,Cameroon,36.1908813,-95.8897448
2664,West,Cameroon,37.0364989,-95.6705987
872,Alberta,Canada,53.9332706,-116.5765035
875,British Columbia,Canada,53.7266683,-127.6476205
867,Manitoba,Canada,53.7608608,-98.8138762
868,New Brunswick,Canada,46.5653163,-66.4619164
877,Newfoundland and Labrador,Canada,53.1355091,-57.6604364
878,Northwest Territories,Canada,64.8255441,-124.8457334
874,Nova Scotia,Canada,44.6819866,-63.744311
876,Nunavut,Canada,70.2997711,-83.107577
866,Ontario,Canada,51.253775,-85.323214
871,Prince Edward Island,Canada,46.510712,-63.4168136
873,Quebec,Canada,52.9399159,-73.5491361
870,Saskatchewan,Canada,52.9399159,-106.4508639
869,Yukon,Canada,35.5067215,-97.7625441
2994,Barlavento Islands,Cape Verde,16.8236845,-23.9934881
2999,Boa Vista,Cape Verde,38.743466,-120.7304297
2996,Brava,Cape Verde,40.9897778,-73.6835715
2991,Maio Municipality,Cape Verde,15.2003098,-23.1679793
2987,Mosteiros,Cape Verde,37.8904348,-25.8207556
2997,Paul,Cape Verde,37.0625,-95.677068
2989,Porto Novo,Cape Verde,6.4968574,2.6288523
2988,Praia,Cape Verde,14.93305,-23.5133267
2982,Ribeira Brava Municipality,Cape Verde,16.6070739,-24.2033843
3002,Ribeira Grande,Cape Verde,37.8210369,-25.5148137
2984,Ribeira Grande de Santiago,Cape Verde,14.9830298,-23.6561725
2998,Sal,Cape Verde,26.5958122,-80.2045083
2985,Santa Catarina,Cape Verde,-27.2423392,-50.2188556
2995,Santa Catarina do Fogo,Cape Verde,14.9309104,-24.3222577
3004,Santa Cruz,Cape Verde,36.9741171,-122.0307963
2986,São Domingos,Cape Verde,15.0286165,-23.563922
3000,São Filipe,Cape Verde,14.8951679,-24.4945636
2993,São Lourenço dos Órgãos,Cape Verde,15.0537841,-23.6085612
2990,São Miguel,Cape Verde,37.780411,-25.4970466
3001,São Vicente,Cape Verde,-23.9607157,-46.3962022
2992,Sotavento Islands,Cape Verde,15,-24
2983,Tarrafal,Cape Verde,15.2760578,-23.7484077
3003,Tarrafal de São Nicolau,Cape Verde,16.5636498,-24.354942
1259,Bamingui-Bangoran Prefecture,Central African Republic,8.2733455,20.7122465
1262,Bangui,Central African Republic,4.3946735,18.5581899
1264,Basse-Kotto Prefecture,Central African Republic,4.8719319,21.2845025
1258,Haut-Mbomou Prefecture,Central African Republic,6.2537134,25.4733554
1268,Haute-Kotto Prefecture,Central African Republic,7.7964379,23.3823545
1263,Kémo Prefecture,Central African Republic,5.8867794,19.3783206
1256,Lobaye Prefecture,Central African Republic,4.3525981,17.4795173
1257,Mambéré-Kadéï,Central African Republic,4.7055653,15.9699878
1266,Mbomou Prefecture,Central African Republic,5.556837,23.7632828
1253,Nana-Grébizi Economic Prefecture,Central African Republic,7.1848607,19.3783206
1260,Nana-Mambéré Prefecture,Central African Republic,5.6932135,15.2194808
1255,Ombella-M'Poko Prefecture,Central African Republic,5.1188825,18.4276047
1265,Ouaka Prefecture,Central African Republic,6.3168216,20.7122465
1254,Ouham Prefecture,Central African Republic,7.090911,17.668887
1267,Ouham-Pendé Prefecture,Central African Republic,6.4850984,16.1580937
1252,Sangha-Mbaéré,Central African Republic,3.4368607,16.3463791
1261,Vakaga Prefecture,Central African Republic,9.5113296,22.2384017
3583,Bahr el Gazel,Chad,14.7702266,16.912251
3590,Batha,Chad,13.9371775,18.4276047
3574,Borkou,Chad,17.8688845,18.8076195
5114,Chari-Baguirmi,Chad,11.4618626,15.2446394
3575,Ennedi-Est,Chad,16.3420496,23.0011989
3584,Ennedi-Ouest,Chad,18.977563,21.8568586
3576,Guéra,Chad,11.1219015,18.4276047
3573,Hadjer-Lamis,Chad,12.4577273,16.7234639
3588,Kanem,Chad,14.8781262,15.4068079
3577,Lac,Chad,13.6915377,14.1001326
3585,Logone Occidental,Chad,8.759676,15.876004
3591,Logone Oriental,Chad,8.3149949,16.3463791
3589,Mandoul,Chad,8.603091,17.4795173
3580,Mayo-Kebbi Est,Chad,9.4046039,14.8454619
3571,Mayo-Kebbi Ouest,Chad,10.4113014,15.5943388
3570,Moyen-Chari,Chad,9.0639998,18.4276047
3586,N'Djamena,Chad,12.1348457,15.0557415
3582,Ouaddaï,Chad,13.748476,20.7122465
3592,Salamat,Chad,10.9691601,20.7122465
3572,Sila,Chad,12.13074,21.2845025
3579,Tandjilé,Chad,9.6625729,16.7234639
3587,Tibesti,Chad,21.3650031,16.912251
3581,Wadi Fira,Chad,15.0892416,21.4752851
2828,Aisén del General Carlos Ibañez del Campo,Chile,-46.378345,-72.3007623
2832,Antofagasta,Chile,-23.8369104,-69.2877535
2829,Arica y Parinacota,Chile,-18.5940485,-69.4784541
2823,Atacama,Chile,-27.5660558,-70.050314
2827,Biobío,Chile,-37.4464428,-72.1416132
2825,Coquimbo,Chile,-30.540181,-70.8119953
2826,La Araucanía,Chile,-38.948921,-72.331113
2838,Libertador General Bernardo O'Higgins,Chile,-34.5755374,-71.0022311
2835,Los Lagos,Chile,-41.9197779,-72.1416132
2834,Los Ríos,Chile,-40.2310217,-72.331113
2836,Magallanes y de la Antártica Chilena,Chile,-52.2064316,-72.1685001
2833,Maule,Chile,-35.5163603,-71.5723953
2831,Ñuble,Chile,-36.7225743,-71.7622481
2824,Región Metropolitana de Santiago,Chile,-33.4375545,-70.6504896
2837,Tarapacá,Chile,-20.2028799,-69.2877535
2830,Valparaíso,Chile,-33.047238,-71.6126885
2251,Anhui,China,30.6006773,117.9249002
2257,Beijing,China,39.9041999,116.4073963
2271,Chongqing,China,29.4315861,106.912251
2248,Fujian,China,26.4836842,117.9249002
2275,Gansu,China,35.7518326,104.2861116
2279,Guangdong,China,23.3790333,113.7632828
2278,Guangxi Zhuang,China,23.7247599,108.8076195
2261,Guizhou,China,26.8429645,107.2902839
2273,Hainan,China,19.5663947,109.949686
2280,Hebei,China,37.8956594,114.9042208
2265,Heilongjiang,China,47.1216472,128.738231
2259,Henan,China,34.2904302,113.3823545
2267,Hong Kong SAR,China,22.3193039,114.1693611
2274,Hubei,China,30.7378118,112.2384017
2258,Hunan,China,27.3683009,109.2819347
2269,Inner Mongolia,China,43.37822,115.0594815
2250,Jiangsu,China,33.1401715,119.7889248
2256,Jiangxi,China,27.0874564,114.9042208
2253,Jilin,China,43.837883,126.549572
2268,Liaoning,China,41.9436543,122.5290376
2266,Macau SAR,China,22.198745,113.543873
2262,Ningxia Huizu,China,37.198731,106.1580937
2270,Qinghai,China,35.744798,96.4077358
2272,Shaanxi,China,35.3939908,109.1880047
2252,Shandong,China,37.8006064,-122.2699918
2249,Shanghai,China,31.230416,121.473701
2254,Shanxi,China,37.2425649,111.8568586
2277,Sichuan,China,30.2638032,102.8054753
2255,Taiwan,China,23.69781,120.960515
2276,Tianjin,China,39.1252291,117.0153435
2263,Xinjiang,China,42.5246357,87.5395855
2264,Xizang,China,30.1533605,88.7878678
2260,Yunnan,China,24.4752847,101.3431058
2247,Zhejiang,China,29.1416432,119.7889248
2895,Amazonas,Colombia,-1.4429123,-71.5723953
2890,Antioquia,Colombia,7.1986064,-75.3412179
2881,Arauca,Colombia,6.547306,-71.0022311
2900,"Archipiélago de San Andrés, Providencia y Santa Catalina",Colombia,12.5567324,-81.7185253
2880,Atlántico,Colombia,10.6966159,-74.8741045
4921,Bogotá D.C.,Colombia,4.2820415,-74.5027042
2893,Bolívar,Colombia,8.6704382,-74.0300122
2903,Boyacá,Colombia,5.454511,-73.362003
2887,Caldas,Colombia,5.29826,-75.2479061
2891,Caquetá,Colombia,0.869892,-73.8419063
2892,Casanare,Colombia,5.7589269,-71.5723953
2884,Cauca,Colombia,2.7049813,-76.8259652
2899,Cesar,Colombia,9.3372948,-73.6536209
2876,Chocó,Colombia,5.2528033,-76.8259652
2898,Córdoba,Colombia,8.049293,-75.57405
2875,Cundinamarca,Colombia,5.026003,-74.0300122
2882,Guainía,Colombia,2.585393,-68.5247149
2888,Guaviare,Colombia,2.043924,-72.331113
4871,Huila,Colombia,2.5359349,-75.5276699
2889,La Guajira,Colombia,11.3547743,-72.5204827
2886,Magdalena,Colombia,10.4113014,-74.4056612
2878,Meta,Colombia,39.7673258,-104.9753595
2897,Nariño,Colombia,1.289151,-77.35794
2877,Norte de Santander,Colombia,7.9462831,-72.8988069
2896,Putumayo,Colombia,0.4359506,-75.5276699
2874,Quindío,Colombia,4.4610191,-75.667356
2879,Risaralda,Colombia,5.3158475,-75.9927652
2901,Santander,Colombia,6.6437076,-73.6536209
2902,Sucre,Colombia,8.813977,-74.723283
2883,Tolima,Colombia,4.0925168,-75.1545381
2904,Valle del Cauca,Colombia,3.8008893,-76.6412712
2885,Vaupés,Colombia,0.8553561,-70.8119953
2894,Vichada,Colombia,4.4234452,-69.2877535
2821,Anjouan,Comoros,-12.2138145,44.4370606
2822,Grande Comore,Comoros,-11.7167338,43.3680788
2820,Mohéli,Comoros,-12.3377376,43.7334089
2866,Bouenza Department,Congo,-4.1128079,13.7289167
2870,Brazzaville,Congo,-4.2633597,15.2428853
2864,Cuvette Department,Congo,-0.2877446,16.1580937
2869,Cuvette-Ouest Department,Congo,0.144755,14.4723301
2867,Kouilou Department,Congo,-4.1428413,11.8891721
2868,Lékoumou Department,Congo,-3.170382,13.3587288
2865,Likouala Department,Congo,2.043924,17.668887
2872,Niari Department,Congo,-3.18427,12.2547919
2862,Plateaux Department,Congo,-2.0680088,15.4068079
2863,Pointe-Noire,Congo,-4.7691623,11.866362
2873,Pool Department,Congo,-3.7762628,14.8454619
2871,Sangha Department,Congo,1.4662328,15.4068079
1215,Alajuela Province,Costa Rica,10.391583,-84.4382721
1209,Guanacaste Province,Costa Rica,10.6267399,-85.4436706
1212,Heredia Province,Costa Rica,10.473523,-84.0167423
1213,Limón Province,Costa Rica,9.9896398,-83.0332417
1211,Provincia de Cartago,Costa Rica,9.8622311,-83.9214187
1210,Puntarenas Province,Costa Rica,9.2169531,-83.336188
1214,San José Province,Costa Rica,9.9129727,-84.0768294
2634,Abidjan,Cote D'Ivoire (Ivory Coast),5.3599517,-4.0082563
2626,Agnéby,Cote D'Ivoire (Ivory Coast),5.3224503,-4.3449529
2636,Bafing Region,Cote D'Ivoire (Ivory Coast),8.3252047,-7.5247243
2643,Bas-Sassandra District,Cote D'Ivoire (Ivory Coast),5.2798356,-6.1526985
2635,Bas-Sassandra Region,Cote D'Ivoire (Ivory Coast),5.3567916,-6.7493993
2654,Comoé District,Cote D'Ivoire (Ivory Coast),5.552793,-3.2583626
2644,Denguélé District,Cote D'Ivoire (Ivory Coast),48.0707763,-68.5609341
2642,Denguélé Region,Cote D'Ivoire (Ivory Coast),9.4662372,-7.4381355
2645,Dix-Huit Montagnes,Cote D'Ivoire (Ivory Coast),7.3762373,-7.4381355
2633,Fromager,Cote D'Ivoire (Ivory Coast),45.5450213,-73.6046223
2651,Gôh-Djiboua District,Cote D'Ivoire (Ivory Coast),5.8711393,-5.5617279
2638,Haut-Sassandra,Cote D'Ivoire (Ivory Coast),6.8757848,-6.5783387
2632,Lacs District,Cote D'Ivoire (Ivory Coast),48.1980169,-80.4564412
2640,Lacs Region,Cote D'Ivoire (Ivory Coast),47.7395866,-70.4186652
2627,Lagunes District,Cote D'Ivoire (Ivory Coast),5.8827334,-4.2333355
2639,Lagunes region,Cote D'Ivoire (Ivory Coast),5.8827334,-4.2333355
2631,Marahoué Region,Cote D'Ivoire (Ivory Coast),6.8846207,-5.8987139
2629,Montagnes District,Cote D'Ivoire (Ivory Coast),7.3762373,-7.4381355
2646,Moyen-Cavally,Cote D'Ivoire (Ivory Coast),6.5208793,-7.6114217
2630,Moyen-Comoé,Cote D'Ivoire (Ivory Coast),6.6514917,-3.5003454
2655,N'zi-Comoé,Cote D'Ivoire (Ivory Coast),7.2456749,-4.2333355
2648,Sassandra-Marahoué District,Cote D'Ivoire (Ivory Coast),6.8803348,-6.2375947
2625,Savanes Region,Cote D'Ivoire (Ivory Coast),,
2628,Sud-Bandama,Cote D'Ivoire (Ivory Coast),5.5357083,-5.5617279
2652,Sud-Comoé,Cote D'Ivoire (Ivory Coast),5.552793,-3.2583626
2637,Vallée du Bandama District,Cote D'Ivoire (Ivory Coast),8.278978,-4.8935627
2647,Vallée du Bandama Region,Cote D'Ivoire (Ivory Coast),8.278978,-4.8935627
2650,Woroba District,Cote D'Ivoire (Ivory Coast),8.2491372,-6.9209135
2649,Worodougou,Cote D'Ivoire (Ivory Coast),8.2548962,-6.5783387
2653,Yamoussoukro,Cote D'Ivoire (Ivory Coast),6.8276228,-5.2893433
2641,Zanzan Region,Cote D'Ivoire (Ivory Coast),8.8207904,-3.4195527
734,Bjelovar-Bilogora,Croatia,45.8987972,16.8423093
737,Brod-Posavina,Croatia,45.2637951,17.3264562
728,Dubrovnik-Neretva,Croatia,43.0766588,17.5268471
743,Istria,Croatia,45.1286455,13.901542
5069,Karlovac,Croatia,45.2613352,15.52542016
742,Koprivnica-Križevci,Croatia,46.1568919,16.8390826
729,Krapina-Zagorje,Croatia,46.1013393,15.8809693
731,Lika-Senj,Croatia,44.6192218,15.4701608
726,Međimurje,Croatia,46.3766644,16.4213298
740,Osijek-Baranja,Croatia,45.5576428,18.3942141
724,Požega-Slavonia,Croatia,45.3417868,17.8114359
735,Primorje-Gorski Kotar,Croatia,45.3173996,14.8167466
730,Šibenik-Knin,Croatia,43.9281485,16.1037694
733,Sisak-Moslavina,Croatia,45.3837926,16.5380994
725,Split-Dalmatia,Croatia,43.5240328,16.8178377
739,Varaždin,Croatia,46.2317473,16.3360559
732,Virovitica-Podravina,Croatia,45.6557985,17.7932472
741,Vukovar-Syrmia,Croatia,45.1773552,18.8053527
727,Zadar,Croatia,44.146939,15.6164943
736,Zagreb,Croatia,45.8706612,16.395491
738,Zagreb,Croatia,45.8150108,15.9819189
283,Artemisa Province,Cuba,22.7522903,-82.9931607
286,Camagüey Province,Cuba,21.2167247,-77.7452081
282,Ciego de Ávila Province,Cuba,21.9329515,-78.5660852
287,Cienfuegos Province,Cuba,22.2379783,-80.365865
275,Granma Province,Cuba,20.3844902,-76.6412712
285,Guantánamo Province,Cuba,20.1455917,-74.8741045
272,Havana Province,Cuba,23.0540698,-82.345189
279,Holguín Province,Cuba,20.7837893,-75.8069082
278,Isla de la Juventud,Cuba,21.7084737,-82.8220232
281,Las Tunas Province,Cuba,21.0605162,-76.9182097
284,Matanzas Province,Cuba,22.5767123,-81.3399414
276,Mayabeque Province,Cuba,22.8926529,-81.9534815
277,Pinar del Río Province,Cuba,22.4076256,-83.8473015
274,Sancti Spíritus Province,Cuba,21.9938214,-79.4703885
273,Santiago de Cuba Province,Cuba,20.2397682,-75.9927652
280,Villa Clara Province,Cuba,22.4937204,-79.9192702
749,Famagusta District (Mağusa),Cyprus,35.2857023,33.8411288
744,Kyrenia District (Keryneia),Cyprus,35.299194,33.2363246
747,Larnaca District (Larnaka),Cyprus,34.8507206,33.4831906
748,Limassol District (Leymasun),Cyprus,34.7071301,33.0226174
745,Nicosia District (Lefkoşa),Cyprus,35.1855659,33.3822764
746,Paphos District (Pafos),Cyprus,34.9164594,32.4920088
4627,Benešov,Czech Republic,49.6900828,14.7764399
4620,Beroun,Czech Republic,49.9573428,13.9840715
4615,Blansko,Czech Republic,49.3648502,16.6477552
4542,Břeclav,Czech Republic,48.75314,16.8825169
4568,Brno-město,Czech Republic,49.1950602,16.6068371
4545,Brno-venkov,Czech Republic,49.1250138,16.4558824
4644,Bruntál,Czech Republic,49.9881767,17.4636941
4633,Česká Lípa,Czech Republic,50.6785201,14.5396991
4556,České Budějovice,Czech Republic,48.9775553,14.5150747
4543,Český Krumlov,Czech Republic,48.8127354,14.3174657
4573,Cheb,Czech Republic,50.0795334,12.3698636
4553,Chomutov,Czech Republic,50.4583872,13.301791
4634,Chrudim,Czech Republic,49.8830216,15.8290866
4609,Děčín,Czech Republic,50.7725563,14.2127612
4641,Domažlice,Czech Republic,49.4397027,12.9311435
4559,Frýdek-Místek,Czech Republic,49.6819305,18.3673216
4611,Havlíčkův Brod,Czech Republic,49.6043364,15.5796552
4561,Hodonín,Czech Republic,48.8529391,17.1260025
4580,Hradec Králové,Czech Republic,50.2414805,15.6743
4612,Jablonec nad Nisou,Czech Republic,50.7220528,15.1703135
4625,Jeseník,Czech Republic,50.2246249,17.1980471
4640,Jičín,Czech Republic,50.4353325,15.361044
4613,Jihlava,Czech Republic,49.3983782,15.5870415
4639,Jihočeský kraj,Czech Republic,48.9457789,14.4416055
4602,Jihomoravský kraj,Czech Republic,48.9544528,16.7676899
4624,Jindřichův Hradec,Czech Republic,49.1444823,15.0061389
4581,Karlovarský kraj,Czech Republic,50.1435,12.7501899
4604,Karlovy Vary,Czech Republic,50.1435,12.7501899
4586,Karviná,Czech Republic,49.8566524,18.5432186
4631,Kladno,Czech Republic,50.1940258,14.1043657
4591,Klatovy,Czech Republic,49.3955549,13.2950937
4618,Kolín,Czech Republic,49.9883293,15.0551977
4575,Kraj Vysočina,Czech Republic,49.4490052,15.6405934
4614,Královéhradecký kraj,Czech Republic,50.3512484,15.7976459
4593,Kroměříž,Czech Republic,49.2916582,17.39938
4923,Kutná Hora,Czech Republic,49.9492089,15.247044
4590,Liberec,Czech Republic,50.7564101,14.9965041
4601,Liberecký kraj,Czech Republic,50.659424,14.7632424
4605,Litoměřice,Czech Republic,50.5384197,14.1305458
4617,Louny,Czech Republic,50.3539812,13.8033551
4638,Mělník,Czech Republic,50.3104415,14.5179223
4643,Mladá Boleslav,Czech Republic,50.4252317,14.9362477
4600,Moravskoslezský kraj,Czech Republic,49.7305327,18.2332637
4629,Most,Czech Republic,37.1554083,-94.2948884
4550,Náchod,Czech Republic,50.4145722,16.1656347
4548,Nový Jičín,Czech Republic,49.5943251,18.0135356
4582,Nymburk,Czech Republic,50.1855816,15.0436604
4574,Olomouc,Czech Republic,49.593778,17.2508787
4589,Olomoucký kraj,Czech Republic,49.6586549,17.0811406
4623,Opava,Czech Republic,49.9083757,17.916338
4584,Ostrava-město,Czech Republic,49.8209226,18.2625243
4547,Pardubice,Czech Republic,49.9444479,16.2856916
4588,Pardubický kraj,Czech Republic,49.9444479,16.2856916
4645,Pelhřimov,Czech Republic,49.4306207,15.222983
4560,Písek,Czech Republic,49.3419938,14.246976
4608,Plzeň-jih,Czech Republic,49.5904885,13.5715861
4544,Plzeň-město,Czech Republic,49.7384314,13.3736371
4564,Plzeň-sever,Czech Republic,49.8774893,13.2537428
4607,Plzeňský kraj,Czech Republic,49.4134812,13.3157246
4578,Prachatice,Czech Republic,49.01091,14.0000005
4606,Praha-východ,Czech Republic,49.9389307,14.7924472
4619,Praha-západ,Czech Republic,49.8935235,14.3293779
4598,"Praha, Hlavní město",Czech Republic,50.0755381,14.4378005
4626,Přerov,Czech Republic,49.4671356,17.5077332
4546,Příbram,Czech Republic,49.6947959,14.082381
4551,Prostějov,Czech Republic,49.4418401,17.1277904
4558,Rakovník,Czech Republic,50.106123,13.7396623
4583,Rokycany,Czech Republic,49.8262827,13.6874943
4636,Rychnov nad Kněžnou,Czech Republic,50.1659651,16.2776842
4596,Semily,Czech Republic,50.6051576,15.3281409
4595,Sokolov,Czech Republic,50.2013434,12.6054636
4628,Strakonice,Czech Republic,49.2604043,13.9103085
4554,Středočeský kraj,Czech Republic,49.8782223,14.9362955
4642,Šumperk,Czech Republic,49.9778407,16.9717754
4571,Svitavy,Czech Republic,49.7551629,16.4691861
4565,Tábor,Czech Republic,49.3646293,14.7191293
4646,Tachov,Czech Republic,49.7987803,12.6361921
4621,Teplice,Czech Republic,50.6584605,13.7513227
4597,Třebíč,Czech Republic,49.2147869,15.8795516
4579,Trutnov,Czech Republic,50.5653838,15.9090923
4592,Uherské Hradiště,Czech Republic,49.0597969,17.4958501
4576,Ústecký kraj,Czech Republic,50.6119037,13.7870086
4599,Ústí nad Labem,Czech Republic,50.6119037,13.7870086
4647,Ústí nad Orlicí,Czech Republic,49.9721801,16.3996617
4572,Vsetín,Czech Republic,49.379325,18.0618162
4622,Vyškov,Czech Republic,49.2127445,16.9855927
4648,Žďár nad Sázavou,Czech Republic,49.5643012,15.939103
4563,Zlín,Czech Republic,49.1696052,17.802522
4552,Zlínský kraj,Czech Republic,49.2162296,17.7720353
4630,Znojmo,Czech Republic,48.9272327,16.1037808
2753,Bas-Uélé,Democratic Republic of the Congo,3.9901009,24.9042208
2744,Équateur,Democratic Republic of the Congo,-1.831239,-78.183406
2750,Haut-Katanga,Democratic Republic of the Congo,-10.4102075,27.5495846
2758,Haut-Lomami,Democratic Republic of the Congo,-7.7052752,24.9042208
2734,Haut-Uélé,Democratic Republic of the Congo,3.5845154,28.299435
2751,Ituri,Democratic Republic of the Congo,1.5957682,29.4179324
2757,Kasaï,Democratic Republic of the Congo,-5.0471979,20.7122465
2742,Kasaï Central,Democratic Republic of the Congo,-8.4404591,20.4165934
2735,Kasaï Oriental,Democratic Republic of the Congo,-6.033623,23.5728501
2741,Kinshasa,Democratic Republic of the Congo,-4.4419311,15.2662931
2746,Kongo Central,Democratic Republic of the Congo,-5.2365685,13.914399
2740,Kwango,Democratic Republic of the Congo,-6.4337409,17.668887
2759,Kwilu,Democratic Republic of the Congo,-5.1188825,18.4276047
2747,Lomami,Democratic Republic of the Congo,-6.1453931,24.524264
4953,Lualaba,Democratic Republic of the Congo,-10.4808698,25.6297816
2755,Mai-Ndombe,Democratic Republic of the Congo,-2.6357434,18.4276047
2745,Maniema,Democratic Republic of the Congo,-3.0730929,26.0413889
2752,Mongala,Democratic Republic of the Congo,1.9962324,21.4752851
2749,Nord-Kivu,Democratic Republic of the Congo,-0.7917729,29.0459927
2739,Nord-Ubangi,Democratic Republic of the Congo,3.7878726,21.4752851
2743,Sankuru,Democratic Republic of the Congo,-2.8437453,23.3823545
2738,Sud-Kivu,Democratic Republic of the Congo,-3.011658,28.299435
2748,Sud-Ubangi,Democratic Republic of the Congo,3.2299942,19.1880047
2733,Tanganyika,Democratic Republic of the Congo,-6.2740118,27.9249002
2756,Tshopo,Democratic Republic of the Congo,0.5455462,24.9042208
2732,Tshuapa,Democratic Republic of the Congo,-0.9903023,23.0288844
1530,Capital Region of Denmark,Denmark,55.6751812,12.5493261
1531,Central Denmark Region,Denmark,56.302139,9.302777
1532,North Denmark Region,Denmark,56.8307416,9.4930527
1529,Region of Southern Denmark,Denmark,55.3307714,9.0924903
1528,Region Zealand,Denmark,55.4632518,11.7214979
2933,Ali Sabieh Region,Djibouti,11.1928973,42.941698
2932,Arta Region,Djibouti,11.5255528,42.8479474
2930,Dikhil Region,Djibouti,11.1054336,42.3704744
2929,Djibouti,Djibouti,11.825138,42.590275
2928,Obock Region,Djibouti,12.3895691,43.0194897
2931,Tadjourah Region,Djibouti,11.9338885,42.3938375
4082,Saint Andrew Parish,Dominica,,
4078,Saint David Parish,Dominica,,
4079,Saint George Parish,Dominica,,
4076,Saint John Parish,Dominica,,
4085,Saint Joseph Parish,Dominica,39.0222712,-94.7176504
4083,Saint Luke Parish,Dominica,42.1051363,-80.0570722
4077,Saint Mark Parish,Dominica,,
4080,Saint Patrick Parish,Dominica,,
4084,Saint Paul Parish,Dominica,38.86146,-90.7435619
4081,Saint Peter Parish,Dominica,40.4524194,-80.0085056
4114,Azua Province,Dominican Republic,18.4552709,-70.7380928
4105,Baoruco Province,Dominican Republic,18.4879898,-71.4182249
4090,Barahona Province,Dominican Republic,18.2139066,-71.1043759
4107,Dajabón Province,Dominican Republic,19.5499241,-71.7086514
4095,Distrito Nacional,Dominican Republic,18.4860575,-69.9312117
4113,Duarte Province,Dominican Republic,19.2090823,-70.0270004
4086,El Seibo Province,Dominican Republic,18.7658496,-69.040668
4102,Espaillat Province,Dominican Republic,19.6277658,-70.2786775
4106,Hato Mayor Province,Dominican Republic,18.7635799,-69.2557637
4089,Hermanas Mirabal Province,Dominican Republic,19.3747559,-70.3513235
4097,Independencia,Dominican Republic,32.6335748,-115.4289294
4109,La Altagracia Province,Dominican Republic,18.5850236,-68.6201072
4087,La Romana Province,Dominican Republic,18.4310271,-68.9837373
4116,La Vega Province,Dominican Republic,19.2211554,-70.5288753
4094,María Trinidad Sánchez Province,Dominican Republic,19.3734597,-69.8514439
4099,Monseñor Nouel Province,Dominican Republic,18.9215234,-70.3836815
4115,Monte Cristi Province,Dominican Republic,19.7396899,-71.4433984
4111,Monte Plata Province,Dominican Republic,18.8080878,-69.7869146
4101,Pedernales Province,Dominican Republic,17.8537626,-71.3303209
4096,Peravia Province,Dominican Republic,18.2786594,-70.3335887
4092,Puerto Plata Province,Dominican Republic,19.7543225,-70.8332847
4103,Samaná Province,Dominican Republic,19.2058371,-69.3362949
4091,San Cristóbal Province,Dominican Republic,18.4180414,-70.1065849
4112,San José de Ocoa Province,Dominican Republic,18.543858,-70.5041816
4098,San Juan Province,Dominican Republic,-31.5287127,-68.5360403
4110,San Pedro de Macorís,Dominican Republic,18.46266,-69.3051234
4088,Sánchez Ramírez Province,Dominican Republic,19.052706,-70.1492264
4108,Santiago Province,Dominican Republic,-33.45,-70.6667
4100,Santiago Rodríguez Province,Dominican Republic,19.4713181,-71.3395801
4093,Santo Domingo Province,Dominican Republic,18.5104253,-69.8404054
4104,Valverde Province,Dominican Republic,19.5881221,-70.980331
4520,Aileu municipality,East Timor,-8.7043994,125.6095474
4518,Ainaro Municipality,East Timor,-9.0113171,125.5220012
4521,Baucau Municipality,East Timor,-8.4714308,126.4575991
4525,Bobonaro Municipality,East Timor,-8.9655406,125.2587964
4522,Cova Lima Municipality,East Timor,-9.2650375,125.2587964
4524,Dili municipality,East Timor,-8.2449613,125.5876697
4516,Ermera District,East Timor,-8.7524802,125.3987294
4523,Lautém Municipality,East Timor,-8.3642307,126.9043845
4515,Liquiçá Municipality,East Timor,-8.6674095,125.2587964
4517,Manatuto District,East Timor,-8.5155608,126.0159255
4519,Manufahi Municipality,East Timor,-9.0145495,125.8279959
4514,Viqueque Municipality,East Timor,-8.8597918,126.3633516
2923,Azuay,Ecuador,-2.8943068,-78.9968344
2920,Bolívar,Ecuador,-1.7095828,-79.0450429
2917,Cañar,Ecuador,-2.5589315,-78.9388191
2915,Carchi,Ecuador,0.5026912,-77.9042521
2925,Chimborazo,Ecuador,-1.6647995,-78.6543255
2921,Cotopaxi,Ecuador,-0.8384206,-78.6662678
2924,El Oro,Ecuador,-3.2592413,-79.9583541
2922,Esmeraldas,Ecuador,0.9681789,-79.6517202
2905,Galápagos,Ecuador,-0.9537691,-90.9656019
2914,Guayas,Ecuador,-1.9574839,-79.9192702
2911,Imbabura,Ecuador,0.3499768,-78.1260129
5068,Loja,Ecuador,-3.99313,-79.20422
2910,Los Ríos,Ecuador,-1.0230607,-79.4608897
2913,Manabí,Ecuador,-1.0543434,-80.452644
2918,Morona-Santiago,Ecuador,-2.3051062,-78.1146866
2916,Napo,Ecuador,-0.9955964,-77.8129684
2926,Orellana,Ecuador,-0.4545163,-76.9950286
2907,Pastaza,Ecuador,-1.4882265,-78.0031057
2927,Pichincha,Ecuador,-0.1464847,-78.4751945
2912,Santa Elena,Ecuador,-2.2267105,-80.859499
2919,Santo Domingo de los Tsáchilas,Ecuador,-0.2521882,-79.1879383
2906,Sucumbíos,Ecuador,0.0889231,-76.8897557
2908,Tungurahua,Ecuador,-1.2635284,-78.5660852
2909,Zamora Chinchipe,Ecuador,-4.0655892,-78.9503525
3235,Alexandria,Egypt,30.8760568,29.742604
3225,Aswan,Egypt,23.6966498,32.7181375
3236,Asyut,Egypt,27.2133831,31.4456179
3241,Beheira,Egypt,30.8480986,30.3435506
3230,Beni Suef,Egypt,28.8938837,31.4456179
3223,Cairo,Egypt,29.9537564,31.5370003
3245,Dakahlia,Egypt,31.1656044,31.4913182
3224,Damietta,Egypt,31.3625799,31.6739371
3238,Faiyum,Egypt,29.3084021,30.8428497
3234,Gharbia,Egypt,30.8753556,31.03351
3239,Giza,Egypt,28.7666216,29.2320784
3244,Ismailia,Egypt,30.5830934,32.2653887
3222,Kafr el-Sheikh,Egypt,31.3085444,30.8039474
3242,Luxor,Egypt,25.3944444,32.4920088
3231,Matrouh,Egypt,29.569635,26.419389
3243,Minya,Egypt,28.284729,30.5279096
3228,Monufia,Egypt,30.5972455,30.9876321
3246,New Valley,Egypt,24.5455638,27.1735316
3227,North Sinai,Egypt,30.282365,33.617577
3229,Port Said,Egypt,31.0758606,32.2653887
3232,Qalyubia,Egypt,30.3292368,31.2168466
3247,Qena,Egypt,26.2346033,32.9888319
3240,Red Sea,Egypt,24.6826316,34.1531947
5067,Sharqia,Egypt,30.6730545,31.1593247
3226,Sohag,Egypt,26.693834,32.174605
3237,South Sinai,Egypt,29.3101828,34.1531947
3233,Suez,Egypt,29.3682255,32.174605
4139,Ahuachapán Department,El Salvador,13.8216148,-89.9253233
4132,Cabañas Department,El Salvador,13.8648288,-88.7493998
4131,Chalatenango Department,El Salvador,14.1916648,-89.1705998
4137,Cuscatlán Department,El Salvador,13.8661957,-89.0561532
4134,La Libertad Department,El Salvador,13.6817661,-89.3606298
4136,La Paz Department,El Salvador,,
4138,La Unión Department,El Salvador,13.4886443,-87.8942451
4130,Morazán Department,El Salvador,13.7682,-88.1291387
4135,San Miguel Department,El Salvador,13.4451041,-88.2461183
4133,San Salvador Department,El Salvador,13.7739997,-89.2086773
4127,San Vicente Department,El Salvador,13.5868561,-88.7493998
4128,Santa Ana Department,El Salvador,14.1461121,-89.5120084
4140,Sonsonate Department,El Salvador,13.682358,-89.6628111
4129,Usulután Department,El Salvador,13.4470634,-88.556531
3444,Annobón Province,Equatorial Guinea,-1.4268782,5.6352801
3446,Bioko Norte Province,Equatorial Guinea,3.6595072,8.7921836
3443,Bioko Sur Province,Equatorial Guinea,3.4209785,8.6160674
3445,Centro Sur Province,Equatorial Guinea,1.3436084,10.439656
3442,Insular Region,Equatorial Guinea,37.09024,-95.712891
3439,Kié-Ntem Province,Equatorial Guinea,2.028093,11.0711758
3441,Litoral Province,Equatorial Guinea,1.5750244,9.8124935
3438,Río Muni,Equatorial Guinea,1.4610606,9.6786894
3440,Wele-Nzas Province,Equatorial Guinea,1.4166162,11.0711758
3425,Anseba Region,Eritrea,16.4745531,37.8087693
3427,Debub Region,Eritrea,14.9478692,39.1543677
3428,Gash-Barka Region,Eritrea,15.4068825,37.6386622
3426,Maekel Region,Eritrea,15.3551409,38.8623683
3424,Northern Red Sea Region,Eritrea,16.2583997,38.8205454
3429,Southern Red Sea Region,Eritrea,13.5137103,41.7606472
3567,Harju County,Estonia,59.3334239,25.2466974
3555,Hiiu County,Estonia,58.9239553,22.5919468
3569,Ida-Viru County,Estonia,59.2592663,27.4136535
3566,Järva County,Estonia,58.8866713,25.5000624
3565,Jõgeva County,Estonia,58.7506143,26.3604878
3568,Lääne County,Estonia,58.9722742,23.8740834
3564,Lääne-Viru County,Estonia,59.3018816,26.3280312
3562,Pärnu County,Estonia,58.5261952,24.4020159
3563,Põlva County,Estonia,58.1160622,27.2066394
3559,Rapla County,Estonia,58.8492625,24.7346569
3561,Saare County,Estonia,58.4849721,22.6136408
3557,Tartu County,Estonia,58.4057128,26.801576
3558,Valga County,Estonia,57.9103441,26.1601819
3556,Viljandi County,Estonia,58.2821746,25.5752233
3560,Võru County,Estonia,57.7377372,27.1398938
11,Addis Ababa,Ethiopia,8.9806034,38.7577605
6,Afar Region,Ethiopia,11.7559388,40.958688
3,Amhara Region,Ethiopia,11.3494247,37.9784585
9,Benishangul-Gumuz Region,Ethiopia,10.7802889,35.5657862
8,Dire Dawa,Ethiopia,9.6008747,41.850142
10,Gambela Region,Ethiopia,7.9219687,34.1531947
7,Harari Region,Ethiopia,9.314866,42.1967716
5,Oromia Region,Ethiopia,7.5460377,40.6346851
2,Somali Region,Ethiopia,6.6612293,43.7908453
1,"Southern Nations, Nationalities, and Peoples' Region",Ethiopia,6.5156911,36.954107
4,Tigray Region,Ethiopia,14.0323336,38.3165725
1917,Ba,Fiji Islands,36.0613893,-95.8005872
1930,Bua,Fiji Islands,43.0964584,-89.50088
1924,Cakaudrove,Fiji Islands,-16.5814105,179.5120084
1929,Central Division,Fiji Islands,34.0440066,-118.2472738
1932,Eastern Division,Fiji Islands,32.8094305,-117.1289937
1934,Kadavu,Fiji Islands,-19.0127122,178.1876676
1933,Lau,Fiji Islands,31.6687015,-106.3955763
1916,Lomaiviti,Fiji Islands,-17.709,179.091
1922,Macuata,Fiji Islands,-16.4864922,179.2847251
1919,Nadroga-Navosa,Fiji Islands,-17.9865278,177.658113
1927,Naitasiri,Fiji Islands,-17.8975754,178.2071598
1928,Namosi,Fiji Islands,-18.0864176,178.1291387
1921,Northern Division,Fiji Islands,32.8768766,-117.2156345
1926,Ra,Fiji Islands,37.1003153,-95.6744246
1920,Rewa,Fiji Islands,34.7923517,-82.3609264
1931,Rotuma,Fiji Islands,-12.5025069,177.0724164
1925,Serua,Fiji Islands,-18.1804749,178.050979
1918,Tailevu,Fiji Islands,-17.8269111,178.293248
1923,Western Division,Fiji Islands,42.9662198,-78.7021134
1509,Åland Islands,Finland,60.1785247,19.9156105
1511,Central Finland,Finland,62.5666743,25.5549445
1494,Central Ostrobothnia,Finland,63.5621735,24.0013631
1507,Finland Proper,Finland,60.3627914,22.4439369
1496,Kainuu,Finland,64.3736564,28.7437475
1512,Kymenlaakso,Finland,60.780512,26.8829336
1500,Lapland,Finland,67.9222304,26.5046438
1504,North Karelia,Finland,62.8062078,30.1553887
1505,Northern Ostrobothnia,Finland,65.279493,26.2890417
1503,Northern Savonia,Finland,63.08448,27.0253504
1508,Ostrobothnia,Finland,63.1181757,21.9061062
1502,Päijänne Tavastia,Finland,61.3230041,25.7322496
1506,Pirkanmaa,Finland,61.6986918,23.7895598
1501,Satakunta,Finland,61.5932758,22.1483081
1497,South Karelia,Finland,61.1181949,28.1024372
1498,Southern Ostrobothnia,Finland,62.9433099,23.5285267
1495,Southern Savonia,Finland,61.6945148,27.8005015
1493,Tavastia Proper,Finland,60.907015,24.3005498
1510,Uusimaa,Finland,60.21872,25.271621
4967,Ain,France,46.065086,4.888615
4968,Aisne,France,49.4528921,3.0465111
4969,Allier,France,46.3670863,2.5808277
4970,Alpes-de-Haute-Provence,France,44.1637752,5.672478
4972,Alpes-Maritimes,France,43.920417,6.6167822
4811,Alsace,France,48.3181795,7.4416241
4973,Ardèche,France,44.8148695,3.8133483
4974,Ardennes,France,49.6975951,4.1489576
4975,Ariège,France,42.9434783,0.9404864
4976,Aube,France,48.3197547,3.5637104
4977,Aude,France,43.054114,1.9038476
4798,Auvergne-Rhône-Alpes,France,45.4471431,4.3852507
4978,Aveyron,France,44.3156362,2.0852379
5035,Bas-Rhin,France,48.5986444,7.0266676
4979,Bouches-du-Rhône,France,43.5403865,4.4613829
4825,Bourgogne-Franche-Comté,France,47.2805127,4.9994372
4807,Bretagne,France,48.2020471,-2.9326435
4981,Calvados,France,49.0903514,-0.9170648
4982,Cantal,France,45.0492177,2.1567272
4818,Centre-Val de Loire,France,47.7515686,1.6750631
4983,Charente,France,45.6658479,-0.3184577
4984,Charente-Maritime,France,45.7296828,-1.3388116
4985,Cher,France,47.0243628,1.8662732
5064,Clipperton,France,10.2833541,-109.2254215
4986,Corrèze,France,45.3423707,1.3171733
4806,Corse,France,42.0396042,9.0128926
4996,Corse-du-Sud,France,41.8572055,8.4109183
4987,Côte-d'Or,France,47.4651302,4.2315495
4988,Côtes-d'Armor,France,48.4663336,-3.3478961
4989,Creuse,France,46.0590394,1.431505
5047,Deux-Sèvres,France,46.5386817,-0.9019948
4990,Dordogne,France,45.1423416,0.1427408
4991,Doubs,France,46.9321774,6.3476214
4992,Drôme,France,44.7293357,4.6782158
5059,Essonne,France,48.5304615,1.9699056
4993,Eure,France,49.0754035,0.4893732
4994,Eure-et-Loir,France,48.4469784,0.8147025
4995,Finistère,France,48.226961,-4.8243733
4822,French Guiana,France,3.933889,-53.125782
4824,French Polynesia,France,-17.679742,-149.406843
5065,French Southern and Antarctic Lands,France,-47.5446604,51.2837542
4998,Gard,France,43.9595276,3.4935681
5000,Gers,France,43.6950534,-0.0999728
5001,Gironde,France,44.8958469,-1.5940532
4820,Grand-Est,France,48.699803,6.1878074
4829,Guadeloupe,France,16.265,-61.551
5036,Haut-Rhin,France,47.8653774,6.6711381
4997,Haute-Corse,France,42.4295866,8.5062561
4999,Haute-Garonne,France,43.3050555,0.6845515
5011,Haute-Loire,France,45.0853806,3.2260707
5020,Haute-Marne,France,48.1324821,4.6983499
5039,Haute-Saône,France,47.6378996,5.5355055
5043,Haute-Savoie,France,46.0445277,5.864138
5055,Haute-Vienne,France,45.9186878,0.7097206
4971,Hautes-Alpes,France,44.6562682,5.6873211
5033,Hautes-Pyrénées,France,43.1429462,-0.4009736
4828,Hauts-de-France,France,50.4801153,2.7937265
5060,Hauts-de-Seine,France,48.8403008,2.1012559
5002,Hérault,France,43.591112,2.8066108
4796,Île-de-France,France,48.8499198,2.6370411
5003,Ille-et-Vilaine,France,48.1762484,-2.2130401
5004,Indre,France,46.811755,0.9755523
5005,Indre-et-Loire,France,47.2228582,0.1489619
5006,Isère,France,45.2892271,4.9902355
5007,Jura,France,46.7828741,5.1691844
4823,La Réunion,France,-21.115141,55.536384
5008,Landes,France,44.009508,-1.2538579
5009,Loir-et-Cher,France,47.659376,0.8537631
5010,Loire,France,46.3522812,-1.1756339
5012,Loire-Atlantique,France,47.3475721,-2.3466312
5013,Loiret,France,47.9135431,1.760099
5014,Lot,France,44.624607,1.0357631
5015,Lot-et-Garonne,France,44.3687314,-0.0916169
5016,Lozère,France,44.5422779,2.9293459
5017,Maine-et-Loire,France,47.3890034,-1.1202527
5018,Manche,France,49.0881734,-2.4627209
5019,Marne,France,48.9610745,3.6573767
4827,Martinique,France,14.641528,-61.024174
5021,Mayenne,France,48.3066842,-0.6490182
4797,Mayotte,France,-12.8275,45.166244
5038,Métropole de Lyon,France,45.7482629,4.5958404
5022,Meurthe-et-Moselle,France,48.9556615,5.714235
5023,Meuse,France,49.012462,4.8108734
5024,Morbihan,France,47.7439518,-3.4455524
5025,Moselle,France,49.0204566,6.2055322
5026,Nièvre,France,47.1192164,2.9779713
5027,Nord,France,50.5285477,2.6000776
4804,Normandie,France,48.8798704,0.1712529
4795,Nouvelle-Aquitaine,France,45.7087182,0.626891
4799,Occitanie,France,43.8927232,3.2827625
5028,Oise,France,49.4117335,1.8668825
5029,Orne,France,48.5757644,-0.5024295
4816,Paris,France,48.856614,2.3522219
5030,Pas-de-Calais,France,50.5144699,1.811498
4802,Pays-de-la-Loire,France,47.7632836,-0.3299687
4812,Provence-Alpes-Côte-d’Azur,France,43.9351691,6.0679194
5031,Puy-de-Dôme,France,45.7714185,2.6262676
5032,Pyrénées-Atlantiques,France,43.186817,-1.4417071
5034,Pyrénées-Orientales,France,42.6254179,1.8892958
5037,Rhône,France,44.93433,4.2409329
4821,Saint Pierre and Miquelon,France,46.8852,-56.3159
4794,Saint-Barthélemy,France,17.9005134,-62.8205871
4809,Saint-Martin,France,18.0708298,-63.0500809
5040,Saône-et-Loire,France,46.6554883,3.983505
5041,Sarthe,France,48.0262733,-0.3261317
5042,Savoie,France,45.494699,5.8432984
5045,Seine-et-Marne,France,48.6185394,2.4152561
5044,Seine-Maritime,France,49.6609681,0.3677561
5061,Seine-Saint-Denis,France,48.9099318,2.3057379
5048,Somme,France,49.9685922,1.7310696
5049,Tarn,France,43.7914977,1.6758893
5050,Tarn-et-Garonne,France,44.080895,1.0891657
5058,Territoire de Belfort,France,47.6293072,6.66962
5063,Val-d'Oise,France,49.0751818,1.8216914
5062,Val-de-Marne,France,48.7747004,2.3221039
5051,Var,France,43.395073,5.7342417
5052,Vaucluse,France,44.04475,4.6427718
5053,Vendée,France,46.6754103,-2.0298392
5054,Vienne,France,45.5221314,4.8453136
5056,Vosges,France,48.1630173,5.73556
4810,Wallis and Futuna,France,-14.2938,-178.1165
5057,Yonne,France,47.8547614,3.0339404
5046,Yvelines,France,48.7615301,1.2772949
2727,Estuaire Province,Gabon,0.4432864,10.0807298
2726,Haut-Ogooué Province,Gabon,-1.4762544,13.914399
2730,Moyen-Ogooué Province,Gabon,-0.442784,10.439656
2731,Ngounié Province,Gabon,-1.4930303,10.9807003
2725,Nyanga Province,Gabon,-2.8821033,11.1617356
2724,Ogooué-Ivindo Province,Gabon,0.8818311,13.1740348
2729,Ogooué-Lolo Province,Gabon,-0.8844093,12.4380581
2728,Ogooué-Maritime Province,Gabon,-1.3465975,9.7232673
2723,Woleu-Ntem Province,Gabon,2.2989827,11.4466914
2666,Banjul,Gambia The,13.4548761,-16.5790323
2669,Central River Division,Gambia The,13.5994469,-14.8921668
2670,Lower River Division,Gambia The,13.3553306,-15.92299
2671,North Bank Division,Gambia The,13.5285436,-16.0169971
2668,Upper River Division,Gambia The,13.4257366,-14.0072348
2667,West Coast Division,Gambia The,5.9772798,116.0754288
900,Adjara,Georgia,41.6005626,42.0688383
901,Autonomous Republic of Abkhazia,Georgia,43.0015544,41.023407
907,Guria,Georgia,41.9442736,42.0458091
905,Imereti,Georgia,42.230108,42.9008664
910,Kakheti,Georgia,41.6481602,45.6905554
897,Khelvachauri Municipality,Georgia,41.5801926,41.6610742
904,Kvemo Kartli,Georgia,41.4791833,44.6560451
902,Mtskheta-Mtianeti,Georgia,42.1682185,44.6506058
909,Racha-Lechkhumi and Kvemo Svaneti,Georgia,42.6718873,43.0562836
908,Samegrelo-Zemo Svaneti,Georgia,42.7352247,42.1689362
906,Samtskhe-Javakheti,Georgia,41.5479296,43.27764
898,Senaki Municipality,Georgia,42.269636,42.0656896
903,Shida Kartli,Georgia,42.0756944,43.9540462
899,Tbilisi,Georgia,41.7151377,44.827096
3006,Baden-Württemberg,Germany,48.6616037,9.3501336
3009,Bavaria,Germany,48.7904472,11.4978895
3010,Berlin,Germany,52.5200066,13.404954
3013,Brandenburg,Germany,52.4125287,12.5316444
3014,Bremen,Germany,53.0792962,8.8016936
3016,Hamburg,Germany,53.5510846,9.9936819
3018,Hesse,Germany,50.6520515,9.1624376
3008,Lower Saxony,Germany,52.6367036,9.8450766
3007,Mecklenburg-Vorpommern,Germany,53.6126505,12.4295953
3017,North Rhine-Westphalia,Germany,51.4332367,7.6615938
3019,Rhineland-Palatinate,Germany,50.118346,7.3089527
3020,Saarland,Germany,49.3964234,7.0229607
3021,Saxony,Germany,51.1045407,13.2017384
3011,Saxony-Anhalt,Germany,51.9502649,11.6922734
3005,Schleswig-Holstein,Germany,54.2193672,9.6961167
3015,Thuringia,Germany,51.0109892,10.845346
53,Ahafo,Ghana,7.5821372,-2.5497463
48,Ashanti,Ghana,6.7470436,-1.5208624
4959,Bono,Ghana,7.65,-2.5
4958,Bono East,Ghana,7.75,-1.05
52,Central,Ghana,5.5,-1
50,Eastern,Ghana,6.5,-0.5
54,Greater Accra,Ghana,5.8142836,0.0746767
4960,North East,Ghana,10.516667,-0.366667
51,Northern,Ghana,9.5,-1
4961,Oti,Ghana,7.9,0.3
4962,Savannah,Ghana,9.083333,-1.816667
55,Upper East,Ghana,10.7082499,-0.9820668
57,Upper West,Ghana,10.2529757,-2.1450245
56,Volta,Ghana,6.5781373,0.4502368
49,Western,Ghana,5.5,-2.5
4963,Western North,Ghana,6.3,-2.8
2116,Achaea Regional Unit,Greece,38.1158729,21.9522491
2123,Aetolia-Acarnania Regional Unit,Greece,38.7084386,21.3798928
2098,Arcadia Prefecture,Greece,37.5557825,22.3337769
2105,Argolis Regional Unit,Greece,,
2122,Attica Region,Greece,38.0457568,23.8584737
2126,Boeotia Regional Unit,Greece,38.3663664,23.0965064
2128,Central Greece Region,Greece,38.6043984,22.7152131
2125,Central Macedonia,Greece,40.621173,23.1918021
2115,Chania Regional Unit,Greece,35.5138298,24.0180367
2124,Corfu Prefecture,Greece,39.6249838,19.9223461
2129,Corinthia Regional Unit,Greece,,
2109,Crete Region,Greece,35.240117,24.8092691
2130,Drama Regional Unit,Greece,41.2340023,24.2390498
2120,East Attica Regional Unit,Greece,38.2054093,23.8584737
2117,East Macedonia and Thrace,Greece,41.1295126,24.8877191
2110,Epirus Region,Greece,39.5706413,20.7642843
2101,Euboea,Greece,38.5236036,23.8584737
2102,Grevena Prefecture,Greece,40.0837626,21.4273299
2099,Imathia Regional Unit,Greece,40.6060067,22.1430215
2113,Ioannina Regional Unit,Greece,39.6650288,20.8537466
2131,Ionian Islands Region,Greece,37.9694898,21.3802372
2095,Karditsa Regional Unit,Greece,39.3640258,21.9214049
2100,Kastoria Regional Unit,Greece,40.5192691,21.2687171
2127,Kefalonia Prefecture,Greece,38.1753675,20.5692179
2111,Kilkis Regional Unit,Greece,40.9937071,22.8753674
2112,Kozani Prefecture,Greece,40.3005586,21.7887737
2106,Laconia,Greece,43.5278546,-71.4703509
2132,Larissa Prefecture,Greece,39.6390224,22.4191254
2104,Lefkada Regional Unit,Greece,38.8333663,20.7069108
2107,Pella Regional Unit,Greece,40.9148039,22.1430215
2119,Peloponnese Region,Greece,37.5079472,22.37349
2114,Phthiotis Prefecture,Greece,38.999785,22.3337769
2103,Preveza Prefecture,Greece,38.9592649,20.7517155
2121,Serres Prefecture,Greece,41.0863854,23.5483819
2118,South Aegean,Greece,37.0855302,25.1489215
2097,Thessaloniki Regional Unit,Greece,40.6400629,22.9444191
2096,West Greece Region,Greece,38.5115496,21.5706786
2108,West Macedonia Region,Greece,40.3004058,21.7903559
3867,Carriacou and Petite Martinique,Grenada,12.4785888,-61.4493842
3865,Saint Andrew Parish,Grenada,,
3869,Saint David Parish,Grenada,,
3864,Saint George Parish,Grenada,,
3868,Saint John Parish,Grenada,30.1118331,-90.4879916
3866,Saint Mark Parish,Grenada,40.5881863,-73.9495701
3863,Saint Patrick Parish,Grenada,,
3671,Alta Verapaz Department,Guatemala,15.5942883,-90.1494988
3674,Baja Verapaz Department,Guatemala,15.1255867,-90.3748354
3675,Chimaltenango Department,Guatemala,14.5634787,-90.9820668
3666,Chiquimula Department,Guatemala,14.7514999,-89.4742177
3662,El Progreso Department,Guatemala,14.9388732,-90.0746767
3677,Escuintla Department,Guatemala,14.1910912,-90.9820668
3672,Guatemala Department,Guatemala,14.5649401,-90.5257823
3670,Huehuetenango Department,Guatemala,15.5879914,-91.6760691
3659,Izabal Department,Guatemala,15.4976517,-88.864698
3658,Jalapa Department,Guatemala,14.6121446,-89.9626799
3673,Jutiapa Department,Guatemala,14.1930802,-89.9253233
3669,Petén Department,Guatemala,16.912033,-90.2995785
3668,Quetzaltenango Department,Guatemala,14.792433,-91.714958
3657,Quiché Department,Guatemala,15.4983808,-90.9820668
3664,Retalhuleu Department,Guatemala,14.5245485,-91.685788
3676,Sacatepéquez Department,Guatemala,14.5178379,-90.7152749
3667,San Marcos Department,Guatemala,14.9309569,-91.9099238
3665,Santa Rosa Department,Guatemala,38.4405759,-122.7037543
3661,Sololá Department,Guatemala,14.748523,-91.2891036
3660,Suchitepéquez Department,Guatemala,14.4215982,-91.4048249
3663,Totonicapán Department,Guatemala,14.9173402,-91.3613923
2672,Beyla Prefecture,Guinea,8.9198178,-8.3088441
2699,Boffa Prefecture,Guinea,10.1808254,-14.0391615
2709,Boké Prefecture,Guinea,11.0847379,-14.3791912
2676,Boké Region,Guinea,11.1864672,-14.1001326
2686,Conakry,Guinea,9.6411855,-13.5784012
2705,Coyah Prefecture,Guinea,9.7715535,-13.3125299
2679,Dabola Prefecture,Guinea,10.7297806,-11.1107854
2706,Dalaba Prefecture,Guinea,10.6868176,-12.2490697
2688,Dinguiraye Prefecture,Guinea,11.6844222,-10.8000051
2681,Dubréka Prefecture,Guinea,9.7907348,-13.5147735
2682,Faranah Prefecture,Guinea,9.9057399,-10.8000051
2683,Forécariah Prefecture,Guinea,9.3886187,-13.0817903
2675,Fria Prefecture,Guinea,10.3674543,-13.5841871
2685,Gaoual Prefecture,Guinea,11.5762804,-13.3587288
2711,Guéckédou Prefecture,Guinea,8.5649688,-10.1311163
2704,Kankan Prefecture,Guinea,10.3034465,-9.3673084
2697,Kankan Region,Guinea,10.120923,-9.5450974
2710,Kérouané Prefecture,Guinea,9.2536643,-9.0128926
2693,Kindia Prefecture,Guinea,10.1013292,-12.7135121
2701,Kindia Region,Guinea,10.1781694,-12.989615
2691,Kissidougou Prefecture,Guinea,9.2252022,-10.0807298
2692,Koubia Prefecture,Guinea,11.582354,-11.8920237
2703,Koundara Prefecture,Guinea,12.4894021,-13.3067562
2695,Kouroussa Prefecture,Guinea,10.6489229,-9.8850586
2680,Labé Prefecture,Guinea,11.3541939,-12.3463875
2677,Labé Region,Guinea,11.3232042,-12.2891314
2690,Lélouma Prefecture,Guinea,11.183333,-12.933333
2708,Lola Prefecture,Guinea,7.9613818,-8.3964938
2702,Macenta Prefecture,Guinea,8.4615795,-9.2785583
2700,Mali Prefecture,Guinea,11.983709,-12.2547919
2689,Mamou Prefecture,Guinea,10.5736024,-11.8891721
2698,Mamou Region,Guinea,10.5736024,-11.8891721
2673,Mandiana Prefecture,Guinea,10.6172827,-8.6985716
2678,Nzérékoré Prefecture,Guinea,7.7478359,-8.8252502
2684,Nzérékoré Region,Guinea,8.038587,-8.8362755
2694,Pita Prefecture,Guinea,10.8062086,-12.7135121
2707,Siguiri Prefecture,Guinea,11.4148113,-9.1788304
2687,Télimélé Prefecture,Guinea,10.9089364,-13.0299331
2696,Tougué Prefecture,Guinea,11.3841583,-11.6157773
2674,Yomou Prefecture,Guinea,7.5696279,-9.2591571
2720,Bafatá,Guinea-Bissau,12.1735243,-14.652952
2714,Biombo Region,Guinea-Bissau,11.8529061,-15.7351171
2722,Bolama Region,Guinea-Bissau,11.1480591,-16.1345705
2713,Cacheu Region,Guinea-Bissau,12.0551416,-16.0640179
2719,Gabú Region,Guinea-Bissau,11.8962488,-14.1001326
2721,Leste Province,Guinea-Bissau,,
2717,Norte Province,Guinea-Bissau,7.8721811,123.8857747
2718,Oio Region,Guinea-Bissau,12.2760709,-15.3131185
2715,Quinara Region,Guinea-Bissau,11.795562,-15.1726816
2716,Sul Province,Guinea-Bissau,-10.2866578,20.7122465
2712,Tombali Region,Guinea-Bissau,11.3632696,-14.9856176
2764,Barima-Waini,Guyana,7.4882419,-59.6564494
2760,Cuyuni-Mazaruni,Guyana,6.4642141,-60.2110752
2767,Demerara-Mahaica,Guyana,6.546426,-58.0982046
2766,East Berbice-Corentyne,Guyana,2.7477922,-57.4627259
2768,Essequibo Islands-West Demerara,Guyana,6.5720132,-58.4629997
2762,Mahaica-Berbice,Guyana,6.238496,-57.9162555
2765,Pomeroon-Supenaam,Guyana,7.1294166,-58.9206295
2761,Potaro-Siparuni,Guyana,4.7855853,-59.2879977
2763,Upper Demerara-Berbice,Guyana,5.3064879,-58.1892921
2769,Upper Takutu-Upper Essequibo,Guyana,2.9239595,-58.7373634
4123,Artibonite,Haiti,19.362902,-72.4258145
4125,Centre,Haiti,32.8370251,-96.7773882
4119,Grand'Anse,Haiti,12.0166667,-61.7666667
4118,Nippes,Haiti,18.3990735,-73.4180211
4117,Nord,Haiti,43.190526,-89.437921
4121,Nord-Est,Haiti,19.4889723,-71.8571331
4126,Nord-Ouest,Haiti,19.8374009,-73.0405277
4120,Ouest,Haiti,45.4547249,-73.6502365
4122,Sud,Haiti,29.9213248,-90.0973772
4124,Sud-Est,Haiti,18.2783598,-72.3547915
4047,Atlántida Department,Honduras,15.6696283,-87.1422895
4045,Bay Islands Department,Honduras,16.4826614,-85.8793252
4041,Choluteca Department,Honduras,13.2504325,-87.1422895
4051,Colón Department,Honduras,15.6425965,-85.520024
4042,Comayagua Department,Honduras,14.5534828,-87.6186379
4049,Copán Department,Honduras,14.9360838,-88.864698
4046,Cortés Department,Honduras,15.4923508,-88.0900762
4043,El Paraíso Department,Honduras,13.9821294,-86.4996546
4052,Francisco Morazán Department,Honduras,14.45411,-87.0624261
4048,Gracias a Dios Department,Honduras,15.341806,-84.6060449
4044,Intibucá Department,Honduras,14.372734,-88.2461183
4058,La Paz Department,Honduras,-15.0892416,-68.5247149
4054,Lempira Department,Honduras,14.1887698,-88.556531
4056,Ocotepeque Department,Honduras,14.5170347,-89.0561532
4050,Olancho Department,Honduras,14.8067406,-85.7666645
4053,Santa Bárbara Department,Honduras,15.1202795,-88.4016041
4055,Valle Department,Honduras,13.5782936,-87.5791287
4057,Yoro Department,Honduras,15.2949679,-87.1422895
4889,Central and Western District,Hong Kong S.A.R.,22.28666,114.15497
4891,Eastern,Hong Kong S.A.R.,22.28411,114.22414
4888,Islands District,Hong Kong S.A.R.,22.26114,113.94608
4895,Kowloon City,Hong Kong S.A.R.,22.3282,114.19155
4898,Kwai Tsing,Hong Kong S.A.R.,22.35488,114.08401
4897,Kwun Tong,Hong Kong S.A.R.,22.31326,114.22581
4900,North,Hong Kong S.A.R.,22.49471,114.13812
4887,Sai Kung District,Hong Kong S.A.R.,22.38143,114.27052
4901,Sha Tin,Hong Kong S.A.R.,22.38715,114.19534
4894,Sham Shui Po,Hong Kong S.A.R.,22.33074,114.1622
4892,Southern,Hong Kong S.A.R.,22.24725,114.15884
4885,Tai Po District,Hong Kong S.A.R.,22.45085,114.16422
4884,Tsuen Wan District,Hong Kong S.A.R.,22.36281,114.12907
4899,Tuen Mun,Hong Kong S.A.R.,22.39163,113.9770885
4890,Wan Chai,Hong Kong S.A.R.,22.27968,114.17168
4896,Wong Tai Sin,Hong Kong S.A.R.,22.33353,114.19686
4893,Yau Tsim Mong,Hong Kong S.A.R.,22.32138,114.1726
4883,Yuen Long District,Hong Kong S.A.R.,22.44559,114.02218
1048,Bács-Kiskun,Hungary,46.5661437,19.4272464
1055,Baranya,Hungary,46.0484585,18.2719173
1060,Békés,Hungary,46.6704899,21.0434996
1036,Békéscsaba,Hungary,46.6735939,21.0877309
1058,Borsod-Abaúj-Zemplén,Hungary,48.2939401,20.6934112
1064,Budapest,Hungary,47.497912,19.040235
1031,Csongrád County,Hungary,46.416705,20.2566161
1032,Debrecen,Hungary,47.5316049,21.6273124
1049,Dunaújváros,Hungary,46.9619059,18.9355227
1037,Eger,Hungary,47.9025348,20.3772284
1028,Érd,Hungary,47.3919718,18.904544
1044,Fejér County,Hungary,47.1217932,18.5294815
1041,Győr,Hungary,47.6874569,17.6503974
1042,Győr-Moson-Sopron County,Hungary,47.6509285,17.2505883
1063,Hajdú-Bihar County,Hungary,47.4688355,21.5453227
1040,Heves County,Hungary,47.8057617,20.2038559
1027,Hódmezővásárhely,Hungary,46.4181262,20.3300315
1043,Jász-Nagykun-Szolnok County,Hungary,47.2555579,20.5232456
1067,Kaposvár,Hungary,46.3593606,17.7967639
1056,Kecskemét,Hungary,46.8963711,19.6896861
5085,Komárom-Esztergom,Hungary,47.5779786,18.1256855
1065,Miskolc,Hungary,48.1034775,20.7784384
1030,Nagykanizsa,Hungary,46.4590218,16.9896796
1051,Nógrád County,Hungary,47.9041031,19.0498504
1034,Nyíregyháza,Hungary,47.9495324,21.7244053
1053,Pécs,Hungary,46.0727345,18.232266
1059,Pest County,Hungary,47.4480001,19.4618128
1068,Salgótarján,Hungary,48.0935237,19.7999813
1035,Somogy County,Hungary,46.554859,17.5866732
1057,Sopron,Hungary,47.6816619,16.5844795
1045,Szabolcs-Szatmár-Bereg County,Hungary,48.0394954,22.00333
1029,Szeged,Hungary,46.2530102,20.1414253
1033,Székesfehérvár,Hungary,47.1860262,18.4221358
1061,Szekszárd,Hungary,46.3474326,18.7062293
1047,Szolnok,Hungary,47.1621355,20.1824712
1052,Szombathely,Hungary,47.2306851,16.6218441
1066,Tatabánya,Hungary,47.569246,18.404818
1038,Tolna County,Hungary,46.4762754,18.5570627
1039,Vas County,Hungary,47.0929111,16.6812183
1062,Veszprém,Hungary,47.1028087,17.9093019
1054,Veszprém County,Hungary,47.0930974,17.9100763
1046,Zala County,Hungary,46.7384404,16.9152252
1050,Zalaegerszeg,Hungary,46.8416936,16.8416322
3431,Capital Region,Iceland,38.5656957,-92.1816949
3433,Eastern Region,Iceland,,
3437,Northeastern Region,Iceland,43.2994285,-74.2179326
3435,Northwestern Region,Iceland,41.9133932,-73.0471688
3430,Southern Peninsula Region,Iceland,63.9154803,-22.3649667
3434,Southern Region,Iceland,,
3436,Western Region,Iceland,,
3432,Westfjords,Iceland,65.919615,-21.8811764
4023,Andaman and Nicobar Islands,India,11.7400867,92.6586401
4017,Andhra Pradesh,India,15.9128998,79.7399875
4024,Arunachal Pradesh,India,28.2179994,94.7277528
4027,Assam,India,26.2006043,92.9375739
4037,Bihar,India,25.0960742,85.3131194
4031,Chandigarh,India,30.7333148,76.7794179
4040,Chhattisgarh,India,21.2786567,81.8661442
4033,Dadra and Nagar Haveli and Daman and Diu,India,20.3973736,72.8327991
4021,Delhi,India,28.7040592,77.1024902
4009,Goa,India,15.2993265,74.123996
4030,Gujarat,India,22.258652,71.1923805
4007,Haryana,India,29.0587757,76.085601
4020,Himachal Pradesh,India,31.1048294,77.1733901
4029,Jammu and Kashmir,India,33.277839,75.3412179
4025,Jharkhand,India,23.6101808,85.2799354
4026,Karnataka,India,15.3172775,75.7138884
4028,Kerala,India,10.8505159,76.2710833
4852,Ladakh,India,34.2268475,77.5619419
4019,Lakshadweep,India,10.3280265,72.7846336
4039,Madhya Pradesh,India,22.9734229,78.6568942
4008,Maharashtra,India,19.7514798,75.7138884
4010,Manipur,India,24.6637173,93.9062688
4006,Meghalaya,India,25.4670308,91.366216
4036,Mizoram,India,23.164543,92.9375739
4018,Nagaland,India,26.1584354,94.5624426
4013,Odisha,India,20.9516658,85.0985236
4011,Puducherry,India,11.9415915,79.8083133
4015,Punjab,India,31.1471305,75.3412179
4014,Rajasthan,India,27.0238036,74.2179326
4034,Sikkim,India,27.5329718,88.5122178
4035,Tamil Nadu,India,11.1271225,78.6568942
4012,Telangana,India,18.1124372,79.0192997
4038,Tripura,India,23.9408482,91.9881527
4022,Uttar Pradesh,India,26.8467088,80.9461592
4016,Uttarakhand,India,30.066753,79.0192997
4853,West Bengal,India,22.9867569,87.8549755
1822,Aceh,Indonesia,4.695135,96.7493993
1826,Bali,Indonesia,-8.3405389,115.0919509
1810,Banten,Indonesia,-6.4058172,106.0640179
1793,Bengkulu,Indonesia,-3.7928451,102.2607641
1829,DI Yogyakarta,Indonesia,-7.8753849,110.4262088
1805,DKI Jakarta,Indonesia,-6.2087634,106.845599
1812,Gorontalo,Indonesia,0.5435442,123.0567693
1815,Jambi,Indonesia,-1.6101229,103.6131203
1825,Jawa Barat,Indonesia,-7.090911,107.668887
1802,Jawa Tengah,Indonesia,-7.150975,110.1402594
1827,Jawa Timur,Indonesia,-7.5360639,112.2384017
1806,Kalimantan Barat,Indonesia,0.4773475,106.6131405
1819,Kalimantan Selatan,Indonesia,-3.0926415,115.2837585
1794,Kalimantan Tengah,Indonesia,-1.6814878,113.3823545
1804,Kalimantan Timur,Indonesia,0.5386586,116.419389
1824,Kalimantan Utara,Indonesia,3.0730929,116.0413889
1820,Kepulauan Bangka Belitung,Indonesia,-2.7410513,106.4405872
1807,Kepulauan Riau,Indonesia,3.9456514,108.1428669
1811,Lampung,Indonesia,-4.5585849,105.4068079
1800,Maluku,Indonesia,-3.2384616,130.1452734
1801,Maluku Utara,Indonesia,1.5709993,127.8087693
1814,Nusa Tenggara Barat,Indonesia,-8.6529334,117.3616476
1818,Nusa Tenggara Timur,Indonesia,-8.6573819,121.0793705
1798,Papua,Indonesia,-5.0122202,141.3470159
1799,Papua Barat,Indonesia,-1.3361154,133.1747162
1809,Riau,Indonesia,0.2933469,101.7068294
1817,Sulawesi Barat,Indonesia,-2.8441371,119.2320784
1795,Sulawesi Selatan,Indonesia,-3.6687994,119.9740534
1813,Sulawesi Tengah,Indonesia,-1.4300254,121.4456179
1796,Sulawesi Tenggara,Indonesia,-4.14491,122.174605
1808,Sulawesi Utara,Indonesia,0.6246932,123.9750018
1828,Sumatera Barat,Indonesia,-0.7399397,100.8000051
1816,Sumatera Selatan,Indonesia,-3.3194374,103.914399
1792,Sumatera Utara,Indonesia,2.1153547,99.5450974
3929,Alborz,Iran,35.9960467,50.9289246
3934,Ardabil,Iran,38.4853276,47.8911209
3932,Bushehr,Iran,28.7620739,51.5150077
3921,Chaharmahal and Bakhtiari,Iran,31.9970419,50.6613849
3944,East Azerbaijan,Iran,37.9035733,46.2682109
3939,Fars,Iran,29.1043813,53.045893
3920,Gilan,Iran,37.2809455,49.5924134
3933,Golestan,Iran,37.2898123,55.1375834
4920,Hamadan,Iran,34.9193607,47.4832925
3937,Hormozgan,Iran,27.138723,55.1375834
3918,Ilam,Iran,33.2957618,46.670534
3923,Isfahan,Iran,33.2771073,52.3613378
3943,Kerman,Iran,29.4850089,57.6439048
3919,Kermanshah,Iran,34.4576233,46.670534
3917,Khuzestan,Iran,31.4360149,49.041312
3926,Kohgiluyeh and Boyer-Ahmad,Iran,30.724586,50.8456323
3935,Kurdistan,Iran,35.9553579,47.1362125
3928,Lorestan,Iran,33.5818394,48.3988186
3916,Markazi,Iran,34.612305,49.8547266
3938,Mazandaran,Iran,36.2262393,52.5318604
3942,North Khorasan,Iran,37.4710353,57.1013188
3941,Qazvin,Iran,36.0881317,49.8547266
3922,Qom,Iran,34.6415764,50.8746035
3927,Razavi Khorasan,Iran,35.1020253,59.1041758
3940,Semnan,Iran,35.2255585,54.4342138
3931,Sistan and Baluchestan,Iran,27.5299906,60.5820676
3930,South Khorasan,Iran,32.5175643,59.1041758
3945,Tehran,Iran,35.7248416,51.381653
3924,West Azarbaijan,Iran,37.4550062,45
3936,Yazd,Iran,32.1006387,54.4342138
3925,Zanjan,Iran,36.5018185,48.3988186
3964,Al Anbar,Iraq,32.5597614,41.9196471
3958,Al Muthanna,Iraq,29.9133171,45.2993862
3956,Al-Qādisiyyah,Iraq,32.043691,45.1494505
3955,Babylon,Iraq,32.468191,44.5501935
3959,Baghdad,Iraq,33.3152618,44.3660653
3960,Basra,Iraq,30.5114252,47.8296253
3954,Dhi Qar,Iraq,31.1042292,46.3624686
3965,Diyala,Iraq,33.7733487,45.1494505
3967,Dohuk,Iraq,36.9077252,43.0631689
3968,Erbil,Iraq,36.5570628,44.3851263
3957,Karbala,Iraq,32.4045493,43.8673222
3971,Kirkuk,Iraq,35.3292014,43.9436788
3966,Maysan,Iraq,31.8734002,47.1362125
3962,Najaf,Iraq,31.3517486,44.0960311
3963,Nineveh,Iraq,36.229574,42.2362435
3961,Saladin,Iraq,34.5337527,43.483738
3969,Sulaymaniyah,Iraq,35.5466348,45.3003683
3970,Wasit,Iraq,32.6024094,45.7520985
1095,Carlow,Ireland,52.7232217,-6.8108295
1088,Cavan,Ireland,53.9765424,-7.2996623
1091,Clare,Ireland,43.04664,-87.899581
1087,Connacht,Ireland,53.8376243,-8.9584481
1074,Cork,Ireland,51.8985143,-8.4756035
1071,Donegal,Ireland,54.6548993,-8.1040967
1072,Dublin,Ireland,53.3498053,-6.2603097
1079,Galway,Ireland,53.3564509,-8.8534113
1077,Kerry,Ireland,52.1544607,-9.5668633
1082,Kildare,Ireland,53.2120434,-6.8194708
1090,Kilkenny,Ireland,52.5776957,-7.218002
1096,Laois,Ireland,52.994295,-7.3323007
1073,Leinster,Ireland,53.3271538,-7.5140841
1094,Limerick,Ireland,52.5090517,-8.7474955
1076,Longford,Ireland,53.7274982,-7.7931527
1083,Louth,Ireland,53.9252324,-6.4889423
1084,Mayo,Ireland,54.0152604,-9.4289369
1092,Meath,Ireland,53.605548,-6.6564169
1075,Monaghan,Ireland,54.2492046,-6.9683132
1080,Munster,Ireland,51.9471197,7.584532
1078,Offaly,Ireland,53.2356871,-7.7122229
1081,Roscommon,Ireland,53.7592604,-8.2681621
1070,Sligo,Ireland,54.1553277,-8.6064532
1069,Tipperary,Ireland,52.4737894,-8.1618514
1086,Ulster,Ireland,54.7616555,-6.9612273
1089,Waterford,Ireland,52.1943549,-7.6227512
1097,Westmeath,Ireland,53.5345308,-7.4653217
1093,Wexford,Ireland,52.4793603,-6.5839913
1085,Wicklow,Ireland,52.9862313,-6.3672543
1367,Central District,Israel,47.6087583,-122.2964235
1369,Haifa District,Israel,32.4814111,34.994751
1370,Jerusalem District,Israel,31.7648243,34.994751
1366,Northern District,Israel,36.1511864,-95.9951763
1368,Southern District,Israel,40.7137586,-74.0009059
1371,Tel Aviv District,Israel,32.0929075,34.8072165
1679,Abruzzo,Italy,42.1920119,13.7289167
1727,Agrigento,Italy,37.3105202,13.5857978
1783,Alessandria,Italy,44.8175587,8.7046627
1672,Ancona,Italy,43.5493245,13.2663479
1716,Aosta Valley,Italy,45.7388878,7.4261866
1688,Apulia,Italy,40.7928393,17.1011931
1681,Ascoli Piceno,Italy,42.8638933,13.5899733
1780,Asti,Italy,44.9007652,8.2064315
1692,Avellino,Italy,40.996451,15.1258955
1686,Barletta-Andria-Trani,Italy,41.2004543,16.2051484
1706,Basilicata,Italy,40.6430766,15.9699878
1689,Belluno,Italy,46.2497659,12.1969565
1701,Benevento,Italy,41.2035093,14.7520939
1704,Bergamo,Italy,45.6982642,9.6772698
1778,Biella,Italy,45.5628176,8.0582717
1717,Brescia,Italy,45.5415526,10.2118019
1714,Brindisi,Italy,40.6112663,17.763621
1703,Calabria,Italy,39.3087714,16.3463791
1718,Caltanissetta,Italy,37.486013,14.0614982
1669,Campania,Italy,40.6670887,15.1068113
1721,Campobasso,Italy,41.6738865,14.7520939
1731,Caserta,Italy,41.2078354,14.1001326
1728,Catanzaro,Italy,38.8896348,16.4405872
1739,Chieti,Italy,42.0334428,14.3791912
1740,Como,Italy,45.8080416,9.0851793
1742,Cosenza,Italy,39.5644105,16.2522143
1751,Cremona,Italy,45.2014375,9.9836582
1754,Crotone,Italy,39.1309856,17.0067031
1775,Cuneo,Italy,44.5970314,7.6114217
1773,Emilia-Romagna,Italy,44.5967607,11.2186396
1723,Enna,Italy,37.5676216,14.2795349
1744,Fermo,Italy,43.0931367,13.5899733
1746,Ferrara,Italy,44.766368,11.7644068
1771,Foggia,Italy,41.638448,15.5943388
1779,Forlì-Cesena,Italy,43.9947681,11.9804613
1756,Friuli–Venezia Giulia,Italy,46.2259177,13.1033646
1776,Frosinone,Italy,41.6576528,13.6362715
1777,Gorizia,Italy,45.9053899,13.5163725
1787,Grosseto,Italy,42.8518007,11.2523792
1788,Imperia,Italy,43.941866,7.8286368
1789,Isernia,Italy,41.5891555,14.1930918
1781,L'Aquila,Italy,42.1256317,13.6362715
1791,La Spezia,Italy,44.2447913,9.7678687
1674,Latina,Italy,41.4087476,13.0817903
1678,Lazio,Italy,41.812241,12.73851
1675,Lecce,Italy,40.2347393,18.1428669
1677,Lecco,Italy,45.9382941,9.385729
1768,Liguria,Italy,44.3167917,8.3964938
1745,Livorno,Italy,43.0239848,10.6647101
1747,Lodi,Italy,45.2405036,9.5292512
1705,Lombardy,Italy,45.4790671,9.8452433
1749,Lucca,Italy,43.8376736,10.495053
1750,Macerata,Italy,43.2459322,13.2663479
1758,Mantua,Italy,45.1667728,10.7753613
1670,Marche,Italy,43.304562,13.71947
1759,Massa and Carrara,Italy,44.2213998,10.0359661
1760,Matera,Italy,40.6663496,16.6043636
1761,Medio Campidano,Italy,39.5317389,8.704075
1757,Modena,Italy,44.5513799,10.918048
1695,Molise,Italy,41.6738865,14.7520939
1769,Monza and Brianza,Italy,45.623599,9.2588015
1774,Novara,Italy,45.5485133,8.5150793
1790,Nuoro,Italy,40.3286904,9.456155
1786,Oristano,Italy,40.0599068,8.7481167
1665,Padua,Italy,45.3661864,11.8209139
1668,Palermo,Italy,38.11569,13.3614868
1666,Parma,Italy,44.8015322,10.3279354
1676,Pavia,Italy,45.3218166,8.8466236
1691,Perugia,Italy,42.938004,12.6216211
1693,Pesaro and Urbino,Italy,43.6130118,12.7135121
1694,Pescara,Italy,42.3570655,13.9608091
1696,Piacenza,Italy,44.8263112,9.5291447
1702,Piedmont,Italy,45.0522366,7.5153885
1685,Pisa,Italy,43.7228315,10.4017194
1687,Pistoia,Italy,43.9543733,10.8903099
1690,Pordenone,Italy,46.0378862,12.710835
1697,Potenza,Italy,40.4182194,15.876004
1700,Prato,Italy,44.04539,11.1164452
1729,Ragusa,Italy,36.9269273,14.7255129
1707,Ravenna,Italy,44.4184443,12.2035998
1708,Reggio Emilia,Italy,44.585658,10.5564736
1712,Rieti,Italy,42.3674405,12.8975098
1713,Rimini,Italy,44.0678288,12.5695158
1719,Rovigo,Italy,45.0241818,11.8238162
1720,Salerno,Italy,40.4287832,15.2194808
1715,Sardinia,Italy,40.1208752,9.0128926
1722,Sassari,Italy,40.7967907,8.5750407
1732,Savona,Italy,44.2887995,8.265058
1709,Sicily,Italy,37.5999938,14.0153557
1734,Siena,Italy,43.2937732,11.4339148
1667,Siracusa,Italy,37.0656924,15.2857109
1741,Sondrio,Italy,46.1727636,9.7994917
1730,South Sardinia,Italy,39.3893535,8.9397
1743,Taranto,Italy,40.5740901,17.2429976
1752,Teramo,Italy,42.5895608,13.6362715
1755,Terni,Italy,42.5634534,12.5298028
1733,Trapani,Italy,38.0183116,12.5148265
1725,Trentino-South Tyrol,Italy,46.4336662,11.1693296
1762,Treviso,Italy,45.6668517,12.2430617
1763,Trieste,Italy,45.6894823,13.7833072
1664,Tuscany,Italy,43.7710513,11.2486208
1764,Udine,Italy,46.1407972,13.1662896
1683,Umbria,Italy,42.938004,12.6216211
1765,Varese,Italy,45.799026,8.7300945
1753,Veneto,Italy,45.4414662,12.3152595
1726,Verbano-Cusio-Ossola,Italy,46.1399688,8.2724649
1785,Vercelli,Italy,45.3202204,8.418508
1736,Verona,Italy,45.4418498,11.0735316
1737,Vibo Valentia,Italy,38.6378565,16.2051484
1738,Vicenza,Italy,45.6983995,11.5661465
1735,Viterbo,Italy,42.400242,11.8891721
3753,Clarendon Parish,Jamaica,17.9557183,-77.2405153
3749,Hanover Parish,Jamaica,18.4097707,-78.133638
3748,Kingston Parish,Jamaica,17.9683271,-76.782702
3754,Manchester Parish,Jamaica,18.0669654,-77.5160788
3752,Portland Parish,Jamaica,18.0844274,-76.4100267
3751,Saint Andrew,Jamaica,37.2245103,-95.7021189
3744,Saint Ann Parish,Jamaica,37.2871452,-77.4103533
3746,Saint Catherine Parish,Jamaica,18.0364134,-77.0564464
3743,Saint Elizabeth Parish,Jamaica,38.9925308,-94.58992
3745,Saint James Parish,Jamaica,30.0179292,-90.7913227
3747,Saint Mary Parish,Jamaica,36.092522,-95.973844
3750,Saint Thomas Parish,Jamaica,41.4425389,-81.7402218
3755,Trelawny Parish,Jamaica,18.3526143,-77.6077865
3742,Westmoreland Parish,Jamaica,18.2944378,-78.1564432
827,Aichi Prefecture,Japan,35.0182505,137.2923893
829,Akita Prefecture,Japan,40.1376293,140.334341
839,Aomori Prefecture,Japan,40.7657077,140.9175879
821,Chiba Prefecture,Japan,35.3354155,140.1832516
865,Ehime Prefecture,Japan,33.6025306,132.7857583
848,Fukui Prefecture,Japan,35.896227,136.2111579
861,Fukuoka Prefecture,Japan,33.5662559,130.715857
847,Fukushima Prefecture,Japan,37.3834373,140.1832516
858,Gifu Prefecture,Japan,35.7437491,136.9805103
862,Gunma Prefecture,Japan,36.5605388,138.8799972
828,Hiroshima Prefecture,Japan,34.8823408,133.0194897
832,Hokkaidō Prefecture,Japan,43.2203266,142.8634737
831,Hyōgo Prefecture,Japan,34.8579518,134.5453787
851,Ibaraki Prefecture,Japan,36.2193571,140.1832516
830,Ishikawa Prefecture,Japan,36.3260317,136.5289653
856,Iwate Prefecture,Japan,39.5832989,141.2534574
864,Kagawa Prefecture,Japan,34.2225915,134.0199152
840,Kagoshima Prefecture,Japan,31.3911958,130.8778586
842,Kanagawa Prefecture,Japan,35.4913535,139.284143
4924,Kōchi Prefecture,Japan,33.2879161,132.2759262
846,Kumamoto Prefecture,Japan,32.8594427,130.7969149
834,Kyōto Prefecture,Japan,35.1566609,135.5251982
833,Mie Prefecture,Japan,33.8143901,136.0487047
857,Miyagi Prefecture,Japan,38.630612,141.1193048
855,Miyazaki Prefecture,Japan,32.6036022,131.441251
843,Nagano Prefecture,Japan,36.1543941,137.9218204
849,Nagasaki Prefecture,Japan,33.2488525,129.6930912
824,Nara Prefecture,Japan,34.2975528,135.8279734
841,Niigata Prefecture,Japan,37.5178386,138.9269794
822,Ōita Prefecture,Japan,33.1589299,131.3611121
820,Okayama Prefecture,Japan,34.8963407,133.6375314
853,Okinawa Prefecture,Japan,26.1201911,127.7025012
859,Ōsaka Prefecture,Japan,34.6413315,135.5629394
863,Saga Prefecture,Japan,33.3078371,130.2271243
860,Saitama Prefecture,Japan,35.9962513,139.4466005
845,Shiga Prefecture,Japan,35.3292014,136.0563212
826,Shimane Prefecture,Japan,35.1244094,132.6293446
825,Shizuoka Prefecture,Japan,35.0929397,138.3190276
854,Tochigi Prefecture,Japan,36.6714739,139.8547266
836,Tokushima Prefecture,Japan,33.9419655,134.3236557
823,Tokyo,Japan,35.6761919,139.6503106
850,Tottori Prefecture,Japan,35.3573161,133.4066618
838,Toyama Prefecture,Japan,36.6958266,137.2137071
844,Wakayama Prefecture,Japan,33.9480914,135.3745358
837,Yamagata Prefecture,Japan,38.5370564,140.1435198
835,Yamaguchi Prefecture,Japan,34.2796769,131.5212742
852,Yamanashi Prefecture,Japan,35.6635113,138.6388879
963,Ajloun,Jordan,32.3325584,35.7516844
965,Amman,Jordan,31.9453633,35.9283895
959,Aqaba,Jordan,29.532086,35.0062821
961,Balqa,Jordan,32.0366806,35.728848
960,Irbid,Jordan,32.5569636,35.8478965
966,Jerash,Jordan,32.2747237,35.8960954
956,Karak,Jordan,31.1853527,35.7047682
964,Ma'an,Jordan,30.1926789,35.7249319
958,Madaba,Jordan,31.7196097,35.7932754
962,Mafraq,Jordan,32.3416923,36.2020175
957,Tafilah,Jordan,30.8338063,35.6160513
967,Zarqa,Jordan,32.0608505,36.0942121
145,Akmola Region,Kazakhstan,51.916532,69.4110494
151,Aktobe Region,Kazakhstan,48.7797078,57.9974378
152,Almaty,Kazakhstan,43.2220146,76.8512485
143,Almaty Region,Kazakhstan,45.0119227,78.4229392
153,Atyrau Region,Kazakhstan,47.1076188,51.914133
155,Baikonur,Kazakhstan,45.9645851,63.3052428
154,East Kazakhstan Region,Kazakhstan,48.7062687,80.7922534
147,Jambyl Region,Kazakhstan,44.2220308,72.3657967
150,Karaganda Region,Kazakhstan,47.9022182,71.7706807
157,Kostanay Region,Kazakhstan,51.5077096,64.0479073
142,Kyzylorda Region,Kazakhstan,44.6922613,62.6571885
141,Mangystau Region,Kazakhstan,44.590802,53.8499508
144,North Kazakhstan Region,Kazakhstan,54.1622066,69.9387071
156,Nur-Sultan,Kazakhstan,51.1605227,71.4703558
146,Pavlodar Region,Kazakhstan,52.2878444,76.9733453
149,Turkestan Region,Kazakhstan,43.3666958,68.4094405
148,West Kazakhstan Province,Kazakhstan,49.5679727,50.8066616
181,Baringo,Kenya,0.8554988,36.0893406
210,Bomet,Kenya,-0.8015009,35.3027226
168,Bungoma,Kenya,0.5695252,34.5583766
161,Busia,Kenya,0.4346506,34.2421597
201,Elgeyo-Marakwet,Kenya,1.0498237,35.4781926
163,Embu,Kenya,-0.6560477,37.7237678
196,Garissa,Kenya,-0.4532293,39.6460988
195,Homa Bay,Kenya,-0.6220655,34.3310364
170,Isiolo,Kenya,0.3524352,38.4849923
197,Kajiado,Kenya,-2.0980751,36.7819505
158,Kakamega,Kenya,0.307894,34.7740793
193,Kericho,Kenya,-0.1827913,35.4781926
199,Kiambu,Kenya,-1.0313701,36.8680791
174,Kilifi,Kenya,-3.5106508,39.9093269
167,Kirinyaga,Kenya,-0.6590565,37.3827234
159,Kisii,Kenya,-0.677334,34.779603
